LONG,LAT,IGNORE4,NAME,PHONE,AVAILABILITY,NOTES,STATE,REGION,AREA
-146.343,61.086,ALLI,Allison Point,907.835.2282,mid may-mid sep,,AK,S,Valdez
-151.865,59.768,ANCH,Anchor River State Rec Area,907.262.5581,,,AK,SW,Anchor Point
-150.81,66.566,ARCT,Arctic Circle - Dalton Hwy,,,,AK,,
-134.737,58.381,AUKV,Auk Village,907.586.8800/907.225.3101,,,AK,NW,Juneau
-149.256,60.751,BERT,Bertha Creek,907.783.3242/907.743.9500,,,AK,SE,Hope
-149.849,61.543,BIGL,Big Lake North State Rec Area,907.745.3975,,,AK,W,Wasilla
-150.702,60.516,BING,Bings Landing State Rec Area,907.262.5581,,,AK,SE,Sterling
-146.641,64.319,BIRC,Birch Lake State Rec Area,,,,AK,SE,Salcha
-149.464,60.973,BIRD,Bird Creek - Chugach State Park,907.345.5014,,,AK,SE,Anchorage
-148.909,60.794,BLAC,Black Bear,907.783.3242/907.743.9500,,,AK,SE,Girdwood
-132.823,56.615,BLIN,Blind Slough,,,take ferry,AK,S,Petersburg
-145.686,61.121,BLUE,Blueberry Lake State Rec Area,,,,AK,E,Valdez
-148.055,63.294,BRUS,Brushkana Creek,,,,AK,E,Cantwell
-152.478,57.763,BUSK,Buskin River State Rec Area,907.486.6339,,take ferry,AK,SW,Kodiak
-150.115,62.747,BYER,Byers Lake - Denali State Park,907.745.3975,,,AK,N,Trapper Creek
-149.733,61.227,CENT,Centennial Camper Park,907.343.6986,,,AK,E,Anchorage
-146.373,64.903,CHEN,Chena River State Rec Area,907.451.2695,,3 campgrounds along same road,AK,E,Fairbanks
-147.81,64.84,CHER,Chena River State Rec Site,907.451.2695,,in town Fairbanks,AK,W,Fairbanks
-144.763,60.661,CHID,Childs Glacier Recreation Area,907.424.7661,early jun-late sep,,AK,,
-135.363,59.148,CHIK,Chilkat State Park,907.766.2292,,,AK,SE,Haines
-135.559,59.334,CHIL,Chilkoot Lake State Rec Area,907.465.4563,,,AK,NW,Haines
-151.387,60.233,CLAM,Clam Gulch State Rec Area,907.262.5581,,,AK,NE,Clam Gulch
-145.442,64.055,CLEA,Clearwater State Rec Area,,,,AK,E,Delta Junction
-149.533,60.85,COEU,Coeur Dalene,907.224.3374/907.743.9500,,,AK,SE,Hope
-149.888,60.484,COOP,Cooper Creek Trailhead,907.224.3374/907.743.9500,early jun-late aug,,AK,W,Cooper Landing
-149.688,60.499,CRES,Crescent Creek,907.224.3374/907.743.9500,,,AK,E,Cooper Landing
-146.694,65.274,CRIP,Cripple Creek - Steese Hwy,,,,AK,NE,Fairbanks
-151.688,60.027,DEEP,Deep Creek State Rec Area,907.262.5581,,,AK,S,Ninilchik
-145.733,64.06,DELT,Delta State Rec Area,907.451.2695,,,AK,N,Delta Junction
-150.17,62.737,DENA,Denali Viewpoint - Denali State Park,907.745.3975,,,AK,N,Talkeetna
-151.016,60.804,DISC,Discovery State Rec Area,907.262.5581,,,AK,NE,Kenai
-150.799,60.702,DOLL,Dolly Varden Lake,,,,AK,NE,Kenai
-145.883,63.677,DONN,Donnelly Creek State Rec Area,,,,AK,S,Delta Junction
-145.478,62.146,DRYC,Dry Creek State Rec Area,907.745.3975,,,AK,NE,Glennallen
-135.359,59.483,DYEA,Dyea - Klondike National Historical Park,907.983.9224,,,AK,NW,Skagway
-141.238,64.774,EAGL,Eagle - Taylor Hwy,907.883.5121,,,AK,SW,Eagle
-149.57,61.307,EAGR,Eagle River - Chugach State Park,907.345.5014,,,AK,S,Eagle River
-143.195,63.165,EAGT,Eagle Trail State Rec Area,907.451.2695,,,AK,SW,Tok
-132.852,55.707,EAGN,Eagles Nest,907.826.3271/907.225.3101,mid may-mid sep,take ferry,AK,,
-149.148,61.409,EKLU,Eklunta - Chugach State Park,907.345.5014,,,AK,E,Chugiak
-149.274,61.61,FING,Finger Lake State Rec Area,907.745.3975,,,AK,E,Wasilla
-149.816,65.918,FIVE,Five Mile - Dalton Hwy,,,,AK,,
-152.36,57.831,FORT,Fort Abercrombie State Park,907.486.6339,,take ferry,AK,NE,Kodiak
-149.46,68.5,GALB,Galbraith Lake - Dalton Hwy,,,,AK,,
-149.292,60.725,GRAN,Granite Creek,907.783.3242/907.743.9500,early jun-late aug,,AK,N,Moose Pass
-146.882,64.438,HARD,Harding Lake State Rec Area,907.451.2695,,,AK,SE,Salcha
-132.862,55.467,HARR,Harris River,907.826.3271/907.225.3101,mid may-mid sep,take ferry,AK,SE,Klawock
-150.204,60.466,HIDD,Hidden Lake  - Kenai Wildlife Refuge,907.262.7021,,,AK,W,Cooper Landing
-150.755,60.536,IZAA,Izaak Walton State Rec Area,907.262.5581,,,AK,E,Sterling
-151.269,60.293,JOHN,Johnson Lake State Rec Area,907.262.5581,,,AK,S,Kasilof
-148.495,61.776,KING,King Mountain State Rec Area,907.745.3975,,,AK,SW,Chickaloon
-146.551,62.28,LAKE,Lake Louise State Rec Area,907.745.3975,,for res call 907-441-7575,AK,W,Glennallen
-131.684,55.445,LAST,Last Chance,907.225.2148/907.225.3101,mid may-late aug,,AK,N,Ketchikan
-146.951,61.987,LITT,Little Nelchina State Rec Area,,,,AK,W,Glennallen
-150.322,60.462,LOWO,Lower Ohmer Lake,,,,AK,W,Cooper Landing
-150.461,60.473,LOWS,Lower Skilak Lake,,,,AK,W,Cooper Landing
-150.163,67.318,MARI,Marion Creek - Dalton Hwy,,,,AK,,
-147.795,61.798,MATA,Matanuska Glacier State Rec Area,,,tents only,AK,E,Sutton
-134.587,58.411,MEND,Mendenhall Lake,907.586.8800/907.225.3101,mid may-mid sep,,AK,NW,Juneau
-143.543,63.374,MOON,Moon Lake State Rec Area,,,,AK,W,Tanacross
-150.863,60.5,MORG,Morgans Landing State Rec Area,907.262.5581,,,AK,SW,Sterling
-136.026,59.453,MOSQ,Mosquito Lake State Rec Area,,,,AK,NW,Haines
-146.621,65.356,MOUP,Mount Prindle - Steese Hwy,,,,AK,,
-150.027,61.708,NANC,Nancy Lake State Rec Area,907.745.3975,,,AK,W,Sutton
-151.668,60.051,NINI,Ninilchik State Rec Area,907.262.5581,,,AK,E,Ninilchik
-132.741,56.58,OHME,Ohmer Creek,907.772.5826/907.225.3101,,take ferry,AK,SE,Petersburg
-147.088,65.37,OPHI,Ophir Creek - Steese Hwy,,,,AK,,
-145.535,62.868,PAXS,Paxson Lake,907.822.3217,,,AK,N,Gakona
-143.868,62.729,PORC,Porcupine Creek State Rec Area,907.822.3973,,,AK,NE,Slana
-149.664,60.931,PORT,Porcupine Trailhead,907.224.3374/907.743.9500,early jun-late aug,,AK,NW,Hope
-149.369,60.341,PRIM,Primrose Trailhead,907.224.3374/907.743.9500,,,AK,N,Seward
-149.362,60.407,PTAR,Ptarmigan Creek Trailhead,907.224.3374/907.743.9500,early jun-late aug,,AK,N,Seward
-149.728,60.479,QUAC,Quartz Creek,907.224.3374/907.743.9500,early jun-late aug,,AK,E,Cooper Landing
-145.827,64.198,QUAR,Quartz Lake State Rec Area,907.451.2695,,,AK,N,Delta Junction
-148.894,63.73,RILE,Riley Creek - Denali National Park,800.622.7275,,,AK,,
-149.822,61.558,ROCK,Rocky Lake State Rec Area,907.317.9094.,,,AK,W,Wasilla
-149.974,60.484,RUSS,Russian River Complex,907.224.3374/907.743.9500,early jun-late aug,,AK,W,Cooper Landing
-146.937,64.469,SALC,Salcha River State Rec Area,,,,AK,E,Salcha
-149.294,63.74,SAVA,Savage River - Denali National Park,800.622.7275,,,AK,,
-135.207,57.062,SAWM,Sawmill Creek,907.747.4236/907.225.3101,,take ferry,AK,E,Sitka
-131.726,55.511,SETT,Settlers Cove State Rec Area,,,,AK,N,Ketchikan
-131.698,55.409,SIGN,Signal Creek,907.225.2148/907.225.3101,mid apr-late aug,,AK,NW,Ketchikan
-145.52,62.528,SOUR,Sourdough Creek,907.822.3217,,,AK,NW,Gakona
-145.174,61.665,SQUI,Squirrel Creek State Rec Area,907.745.3975,,,AK,S,Copper Center
-151.812,59.843,STAR,Stariski State Rec Area,,,,AK,N,Anchor Point
-135.369,57.133,STAR,Starrigavan,907.747.4236/907.225.3101,all year,take ferry,AK,N,Sitka
-146.012,63.052,TANG,Tangle Lakes,907.822.3217,,,AK,,
-149.576,63.671,TEKL,Teklanika  River - Denali National Park,800.622.7275,,,AK,SW,Healy
-149.497,60.636,TEND,Tenderfoot Creek,907.224.3374/907.743.9500,early jun-late aug,,AK,NW,Moose Pass
-149.557,60.531,TERN,Tern Lake,,,,AK,NW,Moose Pass
-142.839,63.325,TOKR,Tok River State Rec Area,907.451.2405,,,AK,E,Tok
-149.381,60.416,TRAI,Trail River,907.224.3374/907.743.9500,early jun-late aug,,AK,S,Moose Pass
-147.257,65.192,UPPC,Upper Chatanika River State Rec Area,907.451.2695,,,AK,NE,Fairbanks
-150.319,60.438,UPPS,Upper Skilak,907.262.5581,,,AK,W,Cooper Landing
-146.214,61.138,VALD,Valdez Glacier,907.873.4058,,,AK,E,Valdez
-141.633,64.077,WALK,Walker Fork - Taylor Hwy,907.883.5121,,,AK,E,Chicken
-142.229,63.886,WESF,West Fork - Taylor Hwy,907.883.5121,,,AK,,
-147.73,65.087,WHIT,Whitefish - Lower Chatanika State Rec Area,,,,AK,N,Fairbanks
-148.88,60.786,WILW,Williwaw,907.783.3242/907.743.9500,early jun-late aug,,AK,SE,Girdwood
-150.058,61.753,WILL,Willow Creek State Rec Area,907.745.3975,,,AK,SW,Willow
-124.23,40.269,AWWA,A.W. Way County Park,707.445.7651,,Nice out of the way park - Halfway along beautiful drive called Patrolia Loop,CA,S,Ferndale
-122.771,40.786,ACKE,Ackerman,530.275.1587/530.226.2500,,,CA,N,Lewiston
-120.798,38.177,ACOR,Acorn - New Hogan Lake,209.772.1343,all year,,CA,SE,Valley Springs
-120.52,37.978,ACOR,Acorn - Tuttletown Area - New Melones Lake,209.536.9094,,,CA,,Sonora
-117.408,34.576,ADEL,Adelanto City Park,,,,CA,S,Adelanto
-117.103,32.792,ADMI,Admiral Baker Military - San Diego NS,619.487.0090,,military only - do not use our lat/lon - contact them for directions and info,CA,NE,San Diego
-119.112,37.804,AERI,Aerie Crag RV Camp,760.647.3045/760.873.2400,,no tents,CA,NW,June Lake
-116.384,35.038,AFTO,Afton Canyon,760.252.6000,all year,4 wheel drive required,CA,SW,Baker
-119.09,37.682,AGNE,Agnew Meadows,760.924.5500/760.873.2400,,,CA,W,Mammoth Lakes
-116.302,32.95,AGUA,Agua Caliente,760.765.1188,,hot springs - res: 877.565.3600,CA,NW,Ocotillo
-122.097,41.11,AHDI,Ah - Di - Na,530.926.4511/530.226.2500,,No RVs,CA,E,Castella
-120.406,39.146,AHAR,Ahart,530.367.2224/530.265.4531,,,CA,E,Foresthill
-123.647,40.226,AIKE,Aikens Creek,530.627.3291/707.442.1721,,,CA,,
-120.38,38.985,AIRP,Airport Flat,530.644.2349/530.622.5061,mid may-mid oct,,CA,NE,Pollock Pines
-118.108,36.595,ALAB,Alabama Hills Rec Area,,,dispersed - off Movie Flat Rd - no facil,CA,W,Lone Pine
-121.889,37.659,ALAM,Alameda County Fairgrounds RV,,,,CA,W,Pleasanton
-124.009,40.353,ALBE,Albee Creek State Park,707.946.2472,,,CA,NW,Weott
-118.612,35.72,ALDC,Alder Creek,760.379.5646/559.784.1500,,,CA,E,Glennville
-121.495,40.21,ALDE,Alder Creek,530.258.2141/530.257.2151,,,CA,,
-121.883,41.256,ALGO,Algoma,530.926.4511/530.226.2500,,,CA,E,Mccloud
-119.768,34.908,ALIS,Aliso Park,661.245.3731/805.961.5778,,,CA,,
-121.177,40.217,ALMA,Almanor,530.258.2141/530.257.2151,early may-late sep,,CA,SE,Chester
-120.121,39.323,ALPM,Alpine Meadows,530.587.8113,,,CA,E,Truckee
-122.766,40.887,ALPI,Alpine View,530.275.1587/530.226.2500,,,CA,SW,Trinity Center
-115.781,34.557,AMBO,Amboy Crater,,,shade at tables only,CA,W,Amboy
-120.266,35.284,AMER,American Canyon,805.925.9538/805.961.5778,,,CA,E,San Luis Obisp
-121.833,36.283,ANDR,Andrew Molera State Park,831.667.2315,,long walk to sites,CA,NW,Big Sur
-118.177,34.726,ANTE,Antelope Valley Fairgrounds RV Park,661.206.0427,,no tents,CA,NW,Lancaster
-122.105,37.759,ANTH,Anthony Chabot Regional Park,888.327.2757,,,CA,E,Oakland
-122.381,40.886,ANTL,Antlers,530.275.1587/530.226.2500,all year,,CA,S,Lakehead
-117.717,34.389,APPL,Appletree,661.296.9710/626.574.1613,,,CA,NW,Big Pines
-117.493,34.26,APPW,Applewhite,909.382.2850/909.382.2600,,,CA,E,Lytle Creek
-122.119,40.765,ARBU,Arbuckle Flat,530.275.1587/530.226.2500,,,CA,NE,Bella Vista
-121.483,36.235,ARRO,Arroyo Seco,831.385.5434/805.961.5778,all year,,CA,SW,Greenfield
-122.06,41.117,ASHC,Ash Camp,530.926.4511/530.226.2500,,,CA,E,Castella
-120.828,41.161,ASHK,Ash Creek,530.299.3215/530.233.5811,all year,,CA,E,Adin
-119.188,37.939,ASPN,Aspen,760.647.3045/760.873.2400,,,CA,W,Lee Vining
-120.772,40.556,ASPE,Aspen Grove,530.257.4188/530.257.2151,,,CA,NW,Susanville
-118.668,36.464,ATWE,Atwell Mill - Sequoia National Park,559.565.3341,,Tent only,CA,SE,Grant Grove
-123.011,38.566,AUST,Austin Creek State Rec Area,707.869.2015,,,CA,N,Guerneville
-118.457,35.652,AUXI,Auxiliary Dam,760.379.5646/559.784.1500,,dispersed,CA,N,Lake Isabella
-118.966,36.742,AZAL,Azalea - Sequoia and Kings Canyon National Park,559.565.3341,,3 campgrounds,CA,SE,Grant Grove
-119.116,37.269,BADG,Badger Flat,559.855.5355/559.297.0706,,,CA,E,Lakeshore
-120.136,37.61,BAGB,Bagby Rec Area,,,,CA,SE,Coulterville
-123.4,40.341,BAIC,Bailey Canyon,707.574.6233/707.442.1721,,,CA,SE,Mad River
-122.319,40.8,BAIL,Bailey Cove,530.275.1587/530.226.2500,all year,,CA,SE,Lakehead
-119.752,38.324,BAKE,Baker,209.965.3434/209.533.3671,,,CA,NE,Mi-Wuk
-118.308,37.169,BACC,Baker Creek,760.873.5577,,,CA,W,Big Pine
-118.675,36.223,BALC,Balch Park,559.624.7000,mid may-mid oct,,CA,NE,Springville
-118.888,37.79,BALD,Bald Mountain Springs,760.647.3045/760.873.2400,,dispersed,CA,,
-119.444,34.883,BALL,Ballinger,661.245.3731/805.961.5778,,,CA,S,Maricopa
-120.141,34.9,BARR,Barrel Springs,805.925.9538/805.961.5778,,,CA,E,Santa Maria
-120.288,37.642,BART,Barrett Cove Rec Area,,,,CA,E,La Grange
-116.874,34.171,BARF,Barton Flats,909.382.2790/909.382.2600,early may-late oct,,CA,E,Angelus Oaks
-121.063,37.031,BASA,Basalt State Rec Area - San Luis Reservoir,209.826.1197,,,CA,S,Gustine
-122.959,40.352,BASG,Basin Gulch,530.628.5227/530.226.2500,,,CA,W,Platina
-119.907,34.955,BATE,Bates Canyon,805.925.9538/805.961.5778,,,CA,E,Santa Maria
-121.627,40.348,BATT,Battle Creek,530.258.2141/530.257.2151,,,CA,W,Mineral
-120.099,38.945,BAYV,Bayview,530.543.2600/530.543.2600,,,CA,W,South Lake Tahoe
-121.385,39.13,BEAL,Beale AFB Military,530.634.3382,,voted best - military only - do not use our lat/lon - contact them for directions and info,CA,NW,Beale Afb
-121.172,38.719,BEAP,Beals Point - Folsom Lake State Rec Area,916.988.0205,,,CA,N,Folsom
-123.612,41.444,BEAN,Beans Camp,530.627.3291/707.442.1721,,,CA,,
-118.631,34.713,BEAR,Bear,661.296.9710/626.574.1613,,,CA,W,Lake Hughes
-122.837,39.322,BEAC,Bear Creek,707.275.2361/530.934.3316,,,CA,N,Upper Lake
-120.989,39.084,BERC,Bear River County Park,530.886.4901,mid jun-mid oct,,CA,SW,Colfax
-120.235,39.557,BEAL,Bear Valley,530.994.3401/530.265.4531,,,CA,E,Sierraville
-120.075,38.21,BEAD,Beardsley Dam,209.965.3434/209.533.3671,,,CA,,
-122.829,41.927,BEVR,Beaver Creek,530.493.2243/530.842.6131,,,CA,N,Klamath River
-122.405,40.848,BEEH,Beehive Point,,mid apr-mid sep,little info,CA,S,Lakehead
-118.6,36.142,BELK,Belknap,559.539.2607/559.784.1500,mid may-late oct,No RVs,CA,E,Springville
-116.02,34.002,BELL,Belle - Joshua Tree National Park,760.367.5500,,,CA,,
-123.785,40.061,BENB,Benbow Lake State Rec Area,707.923.3238,mid may-late dec,,CA,S,Garberville
-121.269,40.395,BENC,Benner Creek,,,,CA,N,Chester
-120.643,39.628,BERG,Berger Creek,530.288.3231/530.265.4531,early jun-mid oct,,CA,,
-121.946,39.718,BIDW,Bidwell - Sacramento River State Park,530.342.5185,,,CA,W,Chico
-121.459,39.533,BIDC,Bidwell Canyon - Lake Oroville State Rec Area,530.538.2200,all year,,CA,E,Oroville
-123.252,40.738,BIGR,Big Bar,530.623.2121/530.226.2500,,,CA,S,Big Bar
-122.221,37.169,BIG3,Big Basin Redwoods State Park,831.338.8860,early mar-late dec,,CA,NW,Boulder Creek
-116.879,34.235,BIGB,Big Bear Military,909.866.3965,,military only - do not use our lat/lon - contact them for directions and info,CA,SW,Big Bear
-119.202,37.945,BIGN,Big Bend,760.647.3045/760.873.2400,,,CA,W,Lee Vining
-120.52,39.307,BIGB,Big Bend - Soda Springs,,,,CA,W,Soda Springs
-120.174,39.902,BIGC,Big Cove Family,530.836.2575/530.283.2050,mid may-late aug,,CA,N,Chilcoot
-123.203,40.739,BIGF,Big Flat,530.623.2121/530.226.2500,,,CA,W,Junction City
-123.908,41.688,BIGL,Big Flat,707.457.3131/707.442.1721,,,CA,E,Crescent City
-124.131,41.164,BIG4,Big Lagoon County Park,,,Toilets/shower house sometimes locked - must use port-a-potty,CA,N,Trinidad
-120.106,38.417,BIG2,Big Meadow,209.795.1381/209.533.3671,early jun-late aug,,CA,NE,Arnold
-118.82,36.721,BIGW,Big Meadow,559.338.2251/559.784.1500,,,CA,,
-118.714,37.511,BIGM,Big Meadows,760.873.2500/760.873.2400,mid jun-mid sep,,CA,SE,Mammoth Lakes
-120.425,39.075,BIME,Big Meadows,530.333.4312/530.622.5061,mid may-mid oct,,CA,E,Foresthill
-120.538,38.004,BIGO,Big Oak - Glory Hole Area - New Melones Lake,209.536.9094,,,CA,,Angels Camp
-118.433,37.126,BIGI,Big Pine,760.873.2500/760.873.2400,mid may-mid sep,,CA,W,Big Pine
-121.466,40.634,BIGP,Big Pine,530.336.5521/530.257.2151,,,CA,SW,Old Station
-117.012,34.32,BIGA,Big Pine Flat,909.382.2790/909.382.2600,,,CA,NW,Big Bear Lake
-118.289,37.173,BPTP,Big Pine Triangle Park,,,,CA,N,Big Pine
-120.754,39.144,BIGE,Big Reservoir,530.367.2224/530.265.4531,,,CA,N,Foresthill
-117.777,34.388,BIGR,Big Rock,661.296.9710/626.574.1613,mid may-mid nov,,CA,SE,Pearblossom
-120.628,41.579,BIGS,Big Sage,530.667.2246/530.233.5811,mid may-mid oct,,CA,NW,Alturas
-119.582,37.468,BIGY,Big Sandy,559.877.2218/559.297.0706,,,CA,N,Oakhurst
-123.497,40.665,BIGD,Big Slide,530.628.5227/530.226.2500,,,CA,NW,Hyampom
-118.94,37.749,BIGG,Big Springs,760.647.3045/760.873.2400,,,CA,N,Mammoth Lakes
-118.578,37.265,BIGT,Big Trees,760.873.2500/760.873.2400,mid may-mid sep,,CA,SW,Bishop
-119.227,37.238,BILL,Billy Creek - Lower,559.855.5355/559.297.0706,,,CA,W,Lakeshore
-119.227,37.239,BILU,Billy Creek - Upper,559.855.5355/559.297.0706,,,CA,W,Lakeshore
-120.332,40.546,BISC,Biscar Reservoir,530.257.0456,,no facilities,CA,NE,Susanville
-118.597,37.244,BISH,Bishop Park,760.873.2500/760.873.2400,mid may-mid sep,,CA,SW,Bishop
-118.558,37.287,BITT,Bitterbrush,760.873.2500/760.873.2400,,,CA,SW,Bishop
-121.712,40.184,BLAC,Black Rock,530.258.2141/530.257.2151,,,CA,,
-119.026,36.921,BLAM,Black Rock - Trimmer,,,,CA,SE,Shaver Lake
-116.388,34.076,BLAR,Black Rock Canyon - Joshua Tree National Park,760.367.5500,,,CA,SE,Yucca Valley
-121.01,39.73,BLAT,Black Rock Tent(Family ),530.534.6500/530.283.2050,mid may-mid oct,,CA,NW,La Porte
-121.57,41.557,BLAN,Blanche Lake,530.667.2246/530.233.5811,mid jul-mid oct,,CA,,
-119.811,38.524,BLO2,Bloomfield 2,209.795.1381/209.533.3671,,,CA,NE,Arnold
-119.824,38.538,BLO1,Bloomfield I,209.795.1381/209.533.3671,,,CA,NE,Arnold
-117.45,33.653,BLUJ,Blue Jay,909.736.1811/626.574.1613,,,CA,W,Lake Elsinore
-120.28,41.143,BLUL,Blue Lake,530.279.6116/530.233.5811,mid may-mid oct,,CA,SE,Likely
-120.463,37.664,BLUO,Blue Oaks,,,,CA,E,Modesto
-122.509,39.07,BLUK,Blue Oaks,,,unknown facil,CA,W,Williams
-120.433,37.705,BLOK,Blue Oaks - Don Pedro Rec Area,,,,CA,NE,La Grange
-118.758,34.53,BLUP,Blue Point,,,,CA,W,Castaic
-117.688,34.36,BLUE,Blue Ridge,661.296.9710/626.574.1613,mid may-mid oct,,CA,W,Wrightwood
-117.562,33.374,BLUF,Bluffs - San Onofre State Beach,,all year,,CA,SE,San Clemente
-120.234,38.301,BOAR,Boards Crossing,209.795.1381/209.533.3671,,,CA,,
-116.556,32.713,BOBC,Bobcat Meadow,619.445.6235/626.574.1613,,,CA,S,Pine Valley
-120.104,39.395,BOCA,Boca,530.587.3558/530.265.4531,mid may-late sep,,CA,NE,Truckee
-120.086,39.42,BOCR,Boca Rest,530.587.3558/530.265.4531,mid may-late sep,,CA,NE,Truckee
-120.075,39.429,BOCS,Boca Springs,530.587.3558/530.265.4531,mid may-late sep,,CA,NE,Truckee
-123.054,38.341,BODE,Bodega Dunes - Sonoma Coast State Park,707.875.3483,all year,,CA,NW,Bodega Bay
-121.098,40.575,BOGA,Bogard,530.257.4188/530.257.2151,,,CA,NW,Susanville
-116.953,33.982,BOGP,Bogart Park,951.955.4310,,,CA,NE,Cherry Valley
-117.794,34.086,BOHE,Bohelli Regional Park,909.599.8411,,,CA,SE,San Dimas
-123.658,40.945,BOIS,Boise Creek,530.629.2118/707.442.1721,mid may-mid oct,,CA,W,Willow Creek
-118.044,33.692,BOLS,Bolsa Chica State Beach,,all year,,CA,NW,Huntington Beach
-115.739,33.351,BOMB,Bombay Beach  - Salton Sea State Rec Area,760.393.3052,early jun-late dec,closed indef. due to budget,CA,NW,Niland
-119.452,38.424,BOOT,Bootleg,760.932.7070/775.331.6444,,,CA,S,Coleville
-116.406,33.269,BORR,Borrego Palm Canyon  - Anza Borrego Desert State Park,760.767.4205,,,CA,NW,Borrego Springs
-122.535,38.546,BOTH,Bothe - Napa Valley State Park,707.942.4575,all year,,CA,SE,Calistoga
-121.813,36.354,BOTT,Bottchers Gap,831.385.5434/805.961.5778,,,CA,SE,Carmel
-119.169,37.93,BOUL,Boulder,760.647.3045/760.873.2400,,,CA,SW,Lee Vining
-116.756,33.826,BOUB,Boulder Basin,909.382.2922/909.382.2600,early jun-late aug,No RVs,CA,N,Idyllwild
-120.618,40.195,BOUC,Boulder Creek,530.283.0555/530.283.2050,early jun-late aug,,CA,NE,Taylorsville
-119.861,38.355,BOUF,Boulder Flat,209.965.3434/209.533.3671,,,CA,NE,Mi-Wuk
-118.469,35.673,BOUG,Boulder Gulch,760.379.5646/559.784.1500,mid may-mid sep,,CA,N,Lake Isabella
-116.483,32.729,BOUO,Boulder Oaks,619.445.6235/626.574.1613,,,CA,SE,Pine Valley
-116.225,32.842,BOWW,Bow Willow - Anza Borrego State Park,760.767.5311,,dispersed,CA,S,Borrego Spring
-115.977,33.587,BOXC,Box Canyon Dispersed,760.833.7100,,interesting desert area - flash floods - no facilities - dispersed,CA,E,Mecca
-123.394,40.314,BOYS,Boy Scout Cove - Ruth Lake,707.574.6196,,,CA,SE,Mad River
-120.089,39.438,BOYI,Boyington Mill,530.587.3558/530.265.4531,mid may-late sep,,CA,NE,Truckee
-117.923,34.823,BRAN,Branch Park - Edwards AFB,661.275.2267,all year,Tent only - few tables - no designated sites - by pond,CA,NE,Lancaster
-122.576,40.618,BRAN,Brandy Creek RV,530.242.3412,all year,self-contained only,CA,W,Redding
-121.694,38.111,BRAI,Brannan Island State Rec Area,916.777.6671,all year,,CA,S,Rio Vista
-118.584,35.469,BREC,Breckenridge,760.379.5646/559.784.1500,,No RVs,CA,N,Caliente
-119.241,37.038,BRET,Bretz,559.855.5355/559.297.0706,,,CA,SE,Shaver Lake
-119.624,37.663,BRIV,Bridalveil Creek - Yosemite National Park,209.372.0200,,,CA,,
-121.437,40.73,BRID,Bridge,530.336.5521/530.257.2151,,,CA,N,Old Station
-122.915,40.873,BRIC,Bridge Camp,530.275.1587/530.226.2500,,,CA,N,Weaverville
-123.113,41.65,BRIF,Bridge Flat,530.468.5351/530.842.6131,,river swimming,CA,W,Ft. Jones
-119.849,38.353,BRIG,Brightman,209.965.3434/209.533.3671,,,CA,NE,Mi-Wuk
-118.537,35.103,BRIT,Brite Lake,,,,CA,W,Tehachapi
-118.396,37.346,BRON,Browns Town,760.873.8522,,,CA,S,Bishop
-118.396,37.346,BROW,Browns Town CG (Concession),760-873-8522,,,CA,,Bishop
-119.06,37.009,BUCM,Buck Meadow,559.855.5355/559.297.0706,,,CA,SE,Shaver Lake
-118.854,36.722,BUCR,Buck Rock,559.338.2251/559.784.1500,,,CA,,
-119.348,38.237,BUCE,Buckeye,760.932.7070/775.331.6444,,,CA,W,Bridgeport
-118.764,36.521,BUCF,Buckeye Flat - Sequoia National Park,559.565.3341,,Tent only,CA,NE,Three Rivers
-117.913,34.346,BUCK,Buckhorn,818.899.1900/626.574.1613,,may be closed-check first,CA,NE,La Canada
-122.362,39.811,BUCA,Buckhorn Rec Area,530.865.4781,all year,,CA,NW,Orland
-119.261,35.229,BUEN,Buena Vista Aquatic Rec Area,661.868.7000,,,CA,SW,Bakersfield
-121.13,39.452,BULS,Bullards Lakeshore,530.288.3231/530.265.4531,,no failities,CA,W,Camptonville
-121.573,41.554,BULL,Bullseye Lake,530.667.2246/530.233.5811,mid may-mid oct,,CA,NE,McCloud
-123.909,40.309,BURL,Burlington - Humboldt Redwoods State Park,707.946.1811,,,CA,SE,Weott
-123.482,40.828,BURN,Burnt Ranch,530.623.2121/530.226.2500,,,CA,,
-116.421,32.861,BURR,Burnt Rancheria,619.445.6235/626.574.1613,mid apr-mid oct,,CA,NE,Pine Valley
-123.166,39.23,BUSH,Bushay,707.467.4200,early may-late aug,,CA,N,Ukiah
-122.817,40.854,BUST,Bushytail,530.275.1587/530.226.2500,mid may-late oct,,CA,SW,Trinity Center
-122.326,37.232,BUTA,Butano State Park,650.879.2040,mid may-late dec,,CA,SE,Pescadero
-121.297,40.611,BUTT,Butte Creek,530.257.4188/530.257.2151,,,CA,,
-121.304,40.564,BUTL,Butte Lake - Lassen Volcanic National Park,530.595.6121,early jun-mid oct,,CA,SE,Old Station
-121.559,40.078,BUTM,Butte Meadows,530.258.2141/530.257.2151,,,CA,SW,Chester
-114.892,32.725,BUTT,ButtercupÂ Â OHV,760.337.4400,,paved road- toilets- dumpsters,CA,W,Winterhaven
-119.23,34.869,CABA,Caballo,661.245.3731/805.961.5778,,,CA,SE,Maricopa
-117.7,34.333,CABI,Cabin Flat,661.296.9710/626.574.1613,,Tent only,CA,S,Big Pines
-122.319,38.916,CACC,Cache Creek Canyon County Park,530.666.8115,,,CA,NW,Woodland
-119.913,34.698,CACH,Cachuma,805.967.3481/805.961.5778,,,CA,NE,Santa Ynez
-121.434,38.595,CALX,Cal Expo RV Park,916.263.3187,,,CA,E,Sacramento
-120.988,39.521,CALI,Cal Ida,530.288.3231/530.265.4531,mid apr-mid oct,,CA,NE,Camptonville
-120.288,38.272,CALA,Calaveras Big Trees State Park,209.795.2334,mid may-late dec,,CA,E,Arnold
-116.867,34.941,CALG,Calico Ghost Town Regional Park,760.254.2122,all year,,CA,NW,Yermo
-122.696,38.83,CALS,Calso - Boggs Mountain Demo Forest,707.928.4378,,,CA,,
-120.414,38.88,CACO,Camino Cove,530.644.2349/530.622.5061,,,CA,NE,Pollock Pines
-118.454,35.81,CAM3,Camp 3,760.379.5646/559.784.1500,mid may-mid sep,,CA,NW,Kernville
-119.111,36.858,CAM4,Camp 4 - Yosemite National Park,559.338.2251/559.784.1500,,,CA,E,Fresno
-119.123,36.861,CA45,Camp 4 1/2,559.338.2251/559.784.1500,all year,,CA,E,Fresno
-118.436,35.695,CAM9,Camp 9,760.379.5646/559.784.1500,all year,,CA,S,Kernville
-119.26,34.426,CAMC,Camp Comfort,,,,CA,SW,Ojai
-119.306,37.122,CAME,Camp Edison,559.841.3134,,,CA,NE,Shaver Lake
-118.991,37.639,CAMH,Camp High Sierra,760.934.2368,,,CA,SW,Mammoth Lakes
-121.891,37.707,CAMP,Camp Parks Military,,,military only - do not use our lat/lon - contact them for directions and info,CA,E,Dublin
-120.043,38.936,CAMR,Camp Richardson Complex,530.543.2600/530.543.2600,,4 campgrounds,CA,W,South Lake Tahoe
-120.719,35.777,CAMR,Camp Roberts Military,805.238.8312,,military only - do not use our lat/lon - contact them for directions and info,CA,NW,San Miguel
-120.738,35.323,CAMS,Camp San Luis Obispo RV Military,805.594.6500,,military only - do not use our lat/lon - contact them for directions and info,CA,NW,San Luis Obispo
-120.065,38.934,CAMP,Camp Shelley,,,,CA,W,South Lake Tah
-119.975,38.942,CAML,Campground by the Lake,530) 542-6096,,,CA,,South Lake Tahoe
-119.204,34.833,CAMA,Campo Alto,661.245.3731/805.961.5778,,,CA,N,Pine Mountain
-120.58,39.438,CANY,Canyon Creek,530.288.3231/530.265.4531,,,CA,,
-118.666,36.788,CANV,Canyon View - Sequoia and Kings Canyon National Park,559.565.3341,,,CA,SE,Cedar Grove
-120.054,38.706,CAPL,Caples Lake,209.295.4251/530.622.5061,mid jun-mid oct,,CA,NE,Kit Carson
-120.406,38.651,CAPP,Capps Crossing,530.644.2324/530.622.5061,mid may-mid sep,,CA,SE,Pollock Pines
-121,39.52,CARF,Carlton Flat,530.288.3231/530.265.4531,mid apr-mid oct,,CA,W,Downieville
-121.529,37.628,CARN,Carnegie State Vehicle Rec Area,925.447.9027,,off road vehicle area,CA,SW,Tracy
-119.521,34.392,CARP,Carpinteria State Beach,805.968.1033,all year,pay showers - quarters,CA,S,Carpinteria
-120.64,39.401,CARR,Carr Lake,530.288.3231/530.265.4531,,,CA,NE,Nevada City
-119.97,38.28,CASC,Cascade Creek,209.965.3434/209.533.3671,,,CA,NE,Mi-Wuk
-117.557,33.54,CASP,Caspers Wilderness County Park,,,3 campgrounds,CA,NE,San Juan Capistrano
-117.557,33.54,CAWP,Caspers Wilderness Park,949.923.2211,,,CA,S,Trabuco Canyon
-117.557,33.54,CASP,Caspers Wilderness Park,,,,CA,NE,San Juan Capis
-118.606,34.506,CAST,Castaic Lake,661.257.4050,,Few facilities - is on Castaic Lagoon - call for reserv,CA,N,Santa Clarita
-122.318,41.15,CASP,Castle Crags State Park,530.235.2684,mid may-late dec,,CA,N,Castella
-122.379,41.236,CAST,Castle Lake,530.926.4511/530.226.2500,,,CA,SW,Mt.Shasta
-121.183,37.7,CASW,Caswell Memorial State Park,209.599.3810,all year,,CA,SW,Ripon
-119.182,37.251,CATA,Catavee,559.855.5355/559.297.0706,early jun-late aug,,CA,W,Lakeshore
-121.94,41.259,CATC,Cattle Camp,530.926.4511/530.226.2500,,,CA,E,McCloud
-119.144,37.935,CATT,Cattleguard,760.647.3045/760.873.2400,,,CA,SW,Lee Vining
-121.423,40.685,CAVE,Cave,530.336.5521/530.257.2151,,,CA,NE,Old Station
-120.204,41.979,CAVL,Cave Lake,530.279.6116/530.233.5811,mid jul-mid oct,,CA,E,New Pine Creek
-122.699,39.264,CEDA,Cedar Camp,530.934.1250/530.934.3316,,,CA,SW,Stonyford
-118.582,35.749,CEDC,Cedar Creek,760.379.5646/559.784.1500,mid may-mid oct,No RVs,CA,W,Wofford Heights
-120.294,41.56,CEDP,Cedar Pass,530.279.6116/530.233.5811,,,CA,W,Cedarville
-115.176,32.975,CEME,Cement Flats - Imperial Sand Dunes OHV,760.337.4400,,few facil-gravel surface- toilet,CA,E,Brawley
-119.72,38.632,CENT,Centerville Flat,775.882.2766/775.331.6444,,,CA,,
-120.741,35.424,CERR,Cerro Alto,805.925.9538/805.961.5778,all year,,CA,SW,Atascadero
-120.516,37.982,CHAM,Chamise - Tuttletown Area - New Melones Lake,209.536.9094,,mostly walk in sites,CA,,Columbia
-119.221,34.162,CHAN,Channel Islands Coast Guard Military,805.861.0785,,military only - do not use our lat/lon - contact them for directions and info,CA,SW,Oxnard
-122.288,38.625,CHAP,Chaparral Cove - Lake Berryessa - USBR,707.966.9088,,,CA,N,Napa
-120.543,39.631,CHAP,Chapman Creek,530.288.3231/530.265.4531,early jun-mid oct,,CA,NE,Sierra City
-123.184,39.206,CHEK,Chekaka,707.467.4200,early may-late dec,,CA,N,Ukiah
-121.497,40.103,CHER,Cherry Hill,530.258.2141/530.257.2151,,,CA,SW,Chester
-119.915,37.987,CHEV,Cherry Valley,209.962.7825/209.533.3671,,,CA,NE,Groveland
-118.462,35.824,CHIC,Chico Flat,760.379.5646/559.784.1500,,dispersed,CA,NW,Kernville
-118.016,34.321,CHIS,Chilao,818.899.1900/626.574.1613,mid apr-mid sep,,CA,NE,La Canada
-120.166,39.866,CHIF,Chilcoot Family .,530.836.2575/530.283.2050,mid may-late sep,,CA,N,Chilcoot
-119.539,37.37,CHIL,Chilkoot,559.877.2218/559.297.0706,mid may-late sep,,CA,NE,Oakhurst
-120.538,38.734,CHIM,Chimney  - Sly Park Recreation Area,530.644.2545,,,CA,SE,Pollock Pines
-118.043,35.839,CHIM,Chimney Creek,661.391 6000,,unknown facil,CA,NW,Inyokern
-122.48,38.002,CHIC,China Camp State Park,415.456.0766,all year,long walk to sites,CA,NE,San Rafael
-120.268,38.754,CHIT,China Flat,530.644.2324/530.622.5061,mid may-mid sep,,CA,SE,Kyburz
-117.824,33.92,CHIN,Chino Hills - State Park,951.780.6222,,,CA,SW,Chino Hills
-119.363,36.822,CHOI,Choinumni,559.488.3004,,,CA,NE,Piedra
-119.456,38.394,CHRF,Chris Flat,760.932.7070/775.331.6444,,,CA,S,Walker
-120.836,40.568,CHRI,Christie,530.257.4188/530.257.2151,mid may-late aug,,CA,NW,Susanville
-119.001,34.785,CHUC,Chuchupate,661.245.3731/805.961.5778,,,CA,SW,Frazier Park
-119.123,34.813,CHUL,Chula Vista,661.245.3731/805.961.5778,,,CA,W,Frazier Park
-116.447,32.777,CIBB,Cibbets Flat,619.445.6235/626.574.1613,,,CA,SE,Pine Valley
-124.115,41,CLAB,Clam Beach County Park,,all year,,CA,N,Arcata
-119.8,38.396,CLAF,Clark Fork,209.965.3434/209.533.3671,,,CA,NE,Mi-Wuk
-122.812,40.857,CLAR,Clark Springs,530.275.1587/530.226.2500,,,CA,SW,Trinity Center
-122.586,40.931,CLEC,Clear Creek,530.275.1587/530.226.2500,,,CA,W,Lakehead
-122.814,39.008,CLEA,Clear Lake State Park,707.279.4293,all year,,CA,NE,Kelseyville
-124.204,41.971,CLIF,Clifford Kamph Co Park,707.464.7230,,tent only,CA,NW,Smith River
-119.28,37.529,CLOV,Clover Meadow,559.877.2218/559.297.0706,,,CA,,
-123.024,38.804,CLOF,Cloverdale Citrus Fair,707.894.3992,,,CA,W,Cloverdale
-120.623,35.108,COAS,Coastal Dunes RV Park,805.781.4900,,,CA,NW,Oceano
-119.962,37.214,CODO,Codorniz Rec Area,559.689.3255,all year,,CA,E,Chowchilla
-118.743,36.152,COFF,Coffee Camp,,,little info,CA,E,Springville
-120.315,39.543,COLD,Cold Creek,530.994.3401/530.265.4531,mid apr-mid oct,,CA,SE,Sierraville
-118.611,36.452,COLS,Cold Springs - Sequoia National Park,559.565.3341,,,CA,E,Three Rivers
-117.84,34.291,COLB,Coldbrook,626.335.1251/626.574.1613,,mud slides - may be closed - check!,CA,,
-118.999,37.597,COLW,Coldwater,760.924.5500/760.873.2400,early jun-late sep,,CA,SW,ammoth Lakes
-119.17,37.252,COLL,College,559.855.5355/559.297.0706,early jun-late aug,,CA,E,Lakeshore
-119.386,35.868,COLO,Colonel Allensworth State Historic Park,661.849.3433,all year,,CA,W,Earlimart
-120.17,34.94,COLN,Colson,805.925.9538/805.961.5778,,,CA,E,Santa Maria
-122.015,39.218,COLU,Colusa - Sacramento River State Rec Area,530.458.4927,mid may-late dec,,CA,NW,Colusa
-122.018,39.205,COLF,Colusa County Fairgrounds,530.458.2641,,,CA,SW,Colusa
-120.368,40.047,CONK,Conklin Park Family .,530.836.2575/530.283.2050,,,CA,N,Portola
-121.821,38.011,CONT,Contra Costa County Fair RV Park,925.757.4400,all year,,CA,NW,Antioch
-118.831,36.818,CONV,Convict Flat,559.338.2251/559.784.1500,,,CA,,
-118.849,37.597,CONL,Convict Lake,760.924.5500/760.873.2400,early may-late oct,,CA,SE,Mammoth Lakes
-121.166,40.145,COOL,Cool Springs,,,,CA,S,Almanor
-114.903,33.448,COON,Coon Hollow,,,,CA,,
-122.804,40.746,COOP,Cooper Gulch,530.275.1587/530.226.2500,,,CA,N,Lewiston
-115.326,33.626,CORN,Corn Springs,760.251.4800,all year,,CA,E,Corn Springs
-116.573,32.711,CORR,Corral Canyon,619.445.6235/626.574.1613,,,CA,S,Pine Valley
-115.888,33.474,CORV,Corvina Beach  - Salton Sea State Rec Area,760.393.3052,early jun-late dec,,CA,,
-116.309,32.777,COTD,Cottonwood,,,,CA,N,Boulevard
-118.503,34.639,COTT,Cottonwood,661.296.9710/626.574.1613,,,CA,SW,Lake Hughes
-120.317,39.549,COTW,Cottonwood,530.994.3401/530.265.4531,,,CA,SE,Sierraville
-115.825,33.748,COWD,Cottonwood - Joshua Tree National Park,760.367.5500,,,CA,E,Indio
-121.061,41.431,COTF,Cottonwood Flat,530.667.2246/530.233.5811,,,CA,W,Canby
-120.209,39.891,COTS,Cottonwood Springs Family .,530.836.2575/530.283.2050,mid apr-mid sep,,CA,NW,Chilcoot
-123.05,39.056,COWM,Cow Mountain Rec Area,707.468.4000,,narrow roads - no RVs - desert terrain- 5 areas,CA,SE,Ukiah
-118.619,36.127,COYF,Coy Flat,559.539.2607/559.784.1500,mid may-late oct,,CA,E,Springville
-121.528,37.078,COYO,Coyote Lake County Park,408.842.7800,,,CA,NE,Gilroy
-117.085,34.264,CRAB,Crab Flats,909.382.2782/909.382.2600,mid may-late oct,,CA,E,Lake Arrowhead
-121.52,40.563,CRGS,Crags - Lassen Volcanic National Park,760.932.9888,mid may-late oct,,CA,,
-119.795,37.752,CRAN,Crane Flat - Yosemite National Park,209.372.0200,early jul-late sep,,CA,E,Crane Flat
-121.043,40.627,CRAT,Crater Lake,530.257.4188/530.257.2151,,,CA,NW,Susanville
-120.423,39.891,CROC,Crocker Family .,530.836.2575/530.283.2050,,,CA,NE,Portola
-118.769,37.573,CROW,Crowley Lake,,,,CA,SE,Mammoth Lakes
-117.822,33.563,CRYS,Crystal Cove State Park - Moro Campground,949.494.9143,all year,very expensive,CA,NW,Laguna Beach
-117.836,34.324,CRYL,Crystal Lake Rec Area,626.335.1251/626.574.1613,early may-mid dec,,CA,N,Azusa
-119.845,38.764,CRYS,Crystal Springs,775.882.2766/775.331.6444,,,CA,NW,Bridgeport
-123.389,41.786,CURL,Curly Jack,530.493.2243/530.842.6131,mid may-late dec,,CA,SW,Happy Camp
-120.102,38.977,DLBL,D.L. Bliss State Park,530.525.7277,mid may-late dec,,CA,N,Emerald Bay
-119.832,38.342,DARD,Dardanelle,209.965.3434/209.533.3671,,,CA,NE,Dardanelle
-116.732,33.804,DARC,Dark Canyon,909.382.2922/909.382.2600,mid may-mid sep,,CA,N,Idyllwild
-121.108,39.429,DARK,Dark Day,530.288.3231/530.265.4531,,,CA,SW,Camptonville
-122.656,39.362,DAVI,Davis Flat,530.934.1250/530.934.3316,,,CA,S,Elk Creek
-119.95,34.756,DAVY,Davy Brown,805.925.9538/805.961.5778,,,CA,NE,Santa Ynez
-121.975,41.062,DEAL,Deadlum,530.275.1587/530.226.2500,,,CA,N,Round Mountain
-119.748,38.317,DEAD,Deadman,209.965.3434/209.533.3671,,,CA,NE,Mi-Wuk
-121.024,39.89,DEAN,Deanes Valley,530.283.0555/530.283.2050,mid apr-mid sep,,CA,SW,Quincy
-121.838,40.965,DEEP,Deep Creek,530.275.1587/530.226.2500,,,CA,SE,Big Bend
-119.176,37.252,DEEC,Deer Creek,559.855.5355/559.297.0706,early jun-late aug,,CA,NE,Clovis
-122.135,41.568,DEEM,Deer Mountain Snowpark,,,,CA,NE,Weed
-122.884,39.266,DEER,Deer Valley,707.275.2361/530.934.3316,,,CA,N,Upper Lake
-122.926,40.47,DEEL,Deerlick Springs,530.628.5227/530.226.2500,,,CA,,
-120.526,38.742,DEER,Deerwood  - Sly Park Recreation Area,530.644.2545,,,CA,SE,Pollock Pines
-117.405,33.221,DELM,Del Mar Beach Military,760.725.2134,,military only - do not use our lat/lon - contact them for directions and info,CA,NW,Oceanside
-121.688,37.57,DELV,Del Valle Regional Park,888.327.2757,,,CA,SE,Livermore
-119.202,34.436,DENN,Dennison Park,805.654.3951,,,CA,E,Ojai
-123.393,40.933,DENN,Denny,530.623.2121/530.226.2500,,,CA,SW,Denny
-116.959,34.875,DESE,Desert Rat RV Military,760.577.6418,,military only - do not use our lat/lon - contact them for directions and info,CA,SE,Barstow
-119.063,37.654,DEVI,Devils Postpile,760.934.2289,,,CA,,
-118.036,34.243,DEVO,Devore,818.899.1900/626.574.1613,,,CA,NW,Azusa
-120.638,39.631,DIAB,Diablo,530.288.3231/530.265.4531,early jun-mid oct,,CA,,
-119.87,37.863,DIAM,Diamond O,209.965.3434/209.533.3671,,,CA,E,Groveland
-118.057,36.559,DIAZ,Diaz Lake,760.876.5656,,,CA,S,Lone Pine
-123.541,41.574,DILL,Dillon,530.627.3291/707.442.1721,mid may-mid oct,,CA,N,Orleans
-119.156,37.071,DINK,Dinkey,559.855.5355/559.297.0706,early jun-late oct,,CA,S,Dinkey Creek
-119.837,37.671,DIRT,Dirt Flat,559.877.2218/559.297.0706,all year,,CA,W,El Portal
-122.702,39.336,DIXG,Dixie Glade,,,horse camp,CA,W,Stonyford
-117.047,33.162,DIXL,Dixon Lake,760.839.4680,,,CA,NE,Escondito
-118.435,33.931,DOCK,Dockweiler Beach RV,800.950.7275,all year,,CA,SW,Los Angeles
-120.131,40.975,DODG,Dodge,,,,CA,NE,Susanville
-120.066,39.565,DOGV,Dog Valley,,,,CA,NW,Verdi
-117.212,34.235,DOGW,Dogwood,909.382.2782/909.382.2600,early may-late oct,,CA,NE,Rimforest
-117.688,33.464,DOHE,Doheny State Beach,949.496.6172,all year,,CA,E,Dana Point
-121.345,40.36,DOMI,Domingo Springs,530.258.2141/530.257.2151,,,CA,NW,Chester
-120.241,39.322,DONN,Donner Memorial State Park,530.582.7892,mid may-late dec,,CA,W,Truckee
-120.634,39.322,DONS,Donner Summit Area - Lake Spaulding,916.386.5164,,,CA,NE,Emigrant Gap
-119.31,37.113,DORA,Dorabelle,559.855.5355/559.297.0706,mid may-late oct,,CA,NE,Shaver Lake
-123.042,38.315,DORN,Doran Regional Park,,,,CA,S,Bodega Bay
-118.811,36.636,DORS,Dorst  Creek - Sequoia National Park,559.565.4488,mid jun-late aug,,CA,NW,Giant Forest
-116.941,32.999,DOSP,Dos Picos,760.789.2220,,res: 877.565.3600,CA,SW,Ramona
-121.311,37.83,DOSR,Dos Reis,209.953.8800,,,CA,W,Lathrop
-122.954,40.648,DOUG,Douglas City,,,,CA,SW,Douglas City
-118.011,35.424,DOVE,Dove Springs Off Hwy Area,760.384.5400,,off hwy veh area - no tables,CA,N,Mohave
-116.97,33.461,DRIP,Dripping Springs,760.788.0250/626.574.1613,,,CA,W,Aguanga
-120.765,38.942,DRUB,Dru Barner,530.333.4312/530.622.5061,,,CA,NE,Georgetown
-119.835,37.674,DRYG,Dry Gulch,559.642.3212,all year,walk to sites only,CA,NE,Mariposa
-114.942,32.714,DUNE,Dunebuggy FlatsÂ Â OHV,760.337.4400,,nonmaintained-Â gravel surface- dumpsters- toilets,CA,W,Winterhaven
-118.977,34.675,DUTC,Dutchman,661.245.3731/805.961.5778,,,CA,SE,Maricopa
-123.659,41.235,ENEN,E - Ne - Nuck,530.627.3291/707.442.1721,,,CA,SW,Orleans
-120.779,40.549,EAGL,Eagle,530.257.4188/530.257.2151,,,CA,NW,Susanville
-122.671,41.153,EAGC,Eagle Creek,530.275.1587/530.226.2500,mid may-late aug,,CA,N,Trinity Center
-123.109,41.154,EASF,East Fork,530.629.2118/707.442.1721,,,CA,NE,Cecilville
-118.719,37.484,EASK,East Fork,760.873.2500/760.873.2400,mid may-late oct,,CA,NW,Bishop
-120.532,39.501,EASM,East Meadow,530.994.3401/530.265.4531,early jun-late aug,,CA,NW,Truckee
-122.52,39.349,EAST,East Park Reservoir - USBR,530. 968.5274,all year,some SFW sites may not have tables,CA,NW,Lodoga
-122.921,40.773,EASW,East Weaver,530.275.1587/530.226.2500,,,CA,SW,Trinity Center
-118.833,36.718,EASB,Eastern Big Meadow Road,559.338.2251/559.784.1500,,,CA,,
-123.107,41.154,EAST,Eastfork,530.468.5351/530.842.6131,,,CA,,
-117.925,34.918,EDWA,Edwards AFB Military,661.275.2267,,military only - do not use our lat/lon - contact them for directions and info,CA,,
-123.084,39.825,EELR,Eel River,707.983.6118/530.934.3316,mid mar-mid dec,,CA,E,Covelo
-120.022,34.462,ELCP,El Capitan State Beach,805.968.1033,early apr-late dec,,CA,W,Goleta
-117.413,33.651,ELCA,El Cariso,909.736.1811/626.574.1613,mid may-mid oct,,CA,W,Lake Elsinore
-115.68,32.818,ELCE,El Centro NAF Military,760.339.2486,,military only - do not use our lat/lon - contact them for directions and info,CA,W,El Centro
-120.71,35.338,ELCH,El Chorro Regional Park,805.781.5930,,,CA,NW,San Luis Obispo
-119.975,38.944,ELDO,El Dorado,,,,CA,NE,South Lake Tahoe
-117.542,34.623,ELMI,El Mirage Dry Lake OHV,760.252.6000,,,CA,W,Adelanto
-121.448,40.248,ELAM,Elam,530.258.2141/530.257.2151,,,CA,W,Chester
-124.03,41.359,ELKP,Elk Prairie  - Prairie Creek Redwoods State Park,707.465.7335,all year,,CA,N,Orick
-119.244,37.938,ELLE,Ellery,760.647.3045/760.873.2400,,,CA,W,Lee Vining
-122.242,40.916,ELLC,Ellery Creek,530.275.1587/530.226.2500,mid may-late dec,,CA,E,Lakehead
-120.085,38.952,EMEB,Emerald Bay State Park,530.541.3030,mid may-late dec,As of 2013 - may be CLOSED - check,CA,W,South Lake Tahoe
-120.138,41.264,EMER,Emerson,530.279.6116/530.233.5811,,,CA,S,Eagleville
-117.227,36.495,EMIG,Emigrant - Death Valley National Park,760.786.3200,all year,tent only - no shade,CA,NE,Panamint Springs
-119.319,34.282,EMMA,Emma Wood State Beach,805.968.1033,mid may-late dec,,CA,W,Ventura
-114.2,34.226,EMPI,Empire Landing,,,,CA,NE,Earp
-118.163,36.451,EQUE,Equestrian,760.647.3045/760.873.2400,,horse camp,CA,,
-121.495,36.141,ESCO,Escondido,831.385.5434/805.961.5778,,,CA,SW,Greenfield
-118.949,36.69,ESHO,Eshom,559.338.2251/559.784.1500,,,CA,NE,Woodlake
-122.9,41.459,ETNA,Etna City Park,,,,CA,,Etna
-119.79,38.34,EURE,Eureka Valley,209.965.3434/209.533.3671,,,CA,E,Dardanelle
-118.589,35.643,EVAN,Evans Flat,760.379.5646/559.784.1500,,,CA,SW,Wofford Heights
-118.49,35.929,FAIR,Fairview,760.379.5646/559.784.1500,mid apr-late oct,,CA,N,Kernville
-119.207,34.173,FAIR,Fairways RV Military - Port Hueneme NCB,805.982.6123,,military only - do not use our lat/lon - contact them for directions and info,CA,S,Port Hueneme
-118.159,34.306,FALL,Fall Creek,818.899.1900/626.574.1613,,Walk-in only,CA,S,Palmdale
-120.051,38.926,FALF,Fallen Leaf,530.543.2600/530.543.2600,mid may-mid oct,,CA,W,South Lake Tahoe
-119.387,34.318,FARI,Faria RV Park,805.654.3951,,,CA,W,Ventura
-120.396,38.869,FASH,Fashoda,530.644.2349/530.622.5061,early jun-late aug,Tent only,CA,NE,Pollock Pines
-121.274,39.643,FEAF,Feather Falls,,,may be closed 2013 on - check,CA,NE,Feather Falls
-121.105,40.19,FEAT,Feather River/Rocky Point - Lake Almanor,,,,CA,,Canyondam
-120.029,41.835,FEER,Fee Reservoir,530.279.6101,,tables unknown,CA,E,Fort Bidwell
-119.871,38.367,FENC,Fence Creek,209.965.3434/209.533.3671,,,CA,NE,Mi-Wuk
-116.736,33.79,FERN,Fern Basin,909.382.2922/909.382.2600,early jun-late aug,,CA,N,Idyllwild
-120.992,39.518,FIDD,Fiddle Creek,530.288.3231/530.265.4531,mid apr-mid oct,,CA,NE,Camptonville
-117.15,32.651,FIDD,Fiddlers Cove RV Military - Coronado NB,619.522.8680,,military only - closed until 9/2013 - call first,CA,SE,Coronado
-119.994,34.735,FIGU,Figueroa,805.925.9538/805.961.5778,,,CA,NE,Los Olivos
-120.553,39.486,FIND,Findley,530.994.3401/530.265.4531,mid jun-mid oct,,CA,SW,Sierraville
-120.752,38.799,FINN,Finnon Lake,530.622.6832,,,CA,NE,Placerville
-123.403,40.343,FIRC,Fir Cove,707.574.6233/707.442.1721,mid may-late sep,,CA,SE,Mad River
-120.551,39.486,FIRT,Fir Top,530.994.3401/530.265.4531,mid jun-mid oct,,CA,SW,Sierraville
-119.353,37.26,FISH,Fish Creek,559.877.2218/559.297.0706,mid may-mid sep,,CA,NE,Auberry
-118.217,36.067,FISK,Fish Creek,760.379.5646/559.784.1500,mid may-late sep,,CA,NW,Inyokern
-123.684,41.265,FISL,Fish Lake,530.627.3291/707.442.1721,early jun-late sep,,CA,W,Orleans
-120.408,37.701,FLEM,Fleming Meadow - Don Pedro Rec Area,408.262.7731,,,CA,NE,La Grange
-124.153,41.802,FLOR,Florence Keller County Park,707.464.7230,all year,,CA,NE,Crescent City
-122.213,38.522,FOOT,Foothill Pines - Lake Berryessa - USBR,707.966.9088,,,CA,N,Napa
-123.327,40.377,FORE,Forest Glen,530.628.5227/530.226.2500,,swimming hole in river,CA,SW,Hayfork
-118.579,37.255,FORK,Forks,760.873.2500/760.873.2400,mid may-mid sep,,CA,NE,Aspendell
-119.569,37.315,FORS,Forks,559.877.2218/559.297.0706,mid apr-mid sep,,CA,E,Oakhurst
-123.256,41.865,FORT,Fort Goff,530.493.2243/530.842.6131,,,CA,NW,Seiad
-121.186,35.962,FORH,Fort Hunter Liggett Primitive Military,831.386.2612,,open to public - do not use our lat/lon - contact them for directions and info,CA,S,King City
-123.228,38.508,FORR,Fort Ross State Park,707.847.3286,,,CA,NW,Bodega Bay
-120.073,40.06,FORT,Fort Sage Off Hwy Area,,,no facil - off hwy veh area,CA,NE,Doyle
-117.923,35.977,FOSS,Fossil Falls,,,,CA,N,Little Lake
-119.314,34.356,FOST,Foster Park,805.654.3951,,,CA,NW,Ventura
-118.571,37.249,FOUR,Four Jeffery,760.872.7018,mid may-mid sep,,CA,SW,Bishop
-122.654,39.362,FOUT,Fouts,530.934.1250/530.934.3316,,,CA,W,Stonyford
-122.023,41.245,FOWL,Fowlers Camp,530.926.4511/530.226.2500,,,CA,E,McCloud
-121.373,37.42,FRAN,Frank Raines Regional Park,209.525.6750,,,CA,,Patterson
-120.07,38.17,FRAS,Fraser Flat,209.965.3434/209.533.3671,,,CA,NE,Mi-Wuk
-118.692,36.238,FRAZ,Frazier Mill - State Forest,,,,CA,NE,Springville
-119.822,34.543,FREM,Fremont,805.967.3481/805.961.5778,mid mar-mid oct,,CA,NW,Santa Barbar
-121.502,36.76,FREP,Fremont Peak State Park,831.623.4255,mid may-late dec,,CA,S,San Juan Bautista
-118.683,37.553,FREC,French Camp,760.873.2500/760.873.2400,mid apr-mid oct,,CA,NW,Bishop
-120.421,39.115,FRED,French Meadows,530.367.2224/530.265.4531,mid may-late sep,,CA,E,Foresthill
-120.188,39.9,FREF,Frenchman,530.836.2575/530.283.2050,mid may-late sep,,CA,N,Chilcoot
-121.151,39.458,FREN,Frenchy Point,530.288.3231/530.265.4531,,,CA,W,Camptonville
-119.548,37.456,FRES,Fresno Dome,559.877.2218/559.297.0706,,,CA,NE,Oakhurst
-118.573,35.874,FROG,Frog Meadow,559.539.2607/559.784.1500,,,CA,E,California Hot Springs
-120.522,38.044,FROV,Frogtown RV Park,209.736.4237,,,CA,SE,Angels Camp
-116.881,33.344,FRYC,Fry Creek,760.788.0250/626.574.1613,mid may-mid nov,closed indef.,CA,NW,Santa Ysabel
-122.968,39.436,FULG,Fuller Grove - Lake Pillsbury,707.275.2361/530.934.3316,,,CA,NE,Potter Valley
-120.656,39.35,FULL,Fuller Lake,,,,CA,E,Nevada City
-116.869,36.463,FURN,Furnace Creek - Death Valley National Park,760.786.3200,all year,no reserv mid apr-mid oct - some shade - restaurant,CA,N,Furnace Creek
-119.468,37.361,GAGG,Gaggs Camp,559.877.2218/559.297.0706,,,CA,E,Oakhurst
-121.223,40.02,GANS,Gansner Bar,530.283.0555/530.283.2050,mid may-mid sep,,CA,W,Quincy
-121.123,39.433,GARD,Garden Point,530.288.3231/530.265.4531,,,CA,W,Camptonville
-120.229,34.472,GAVI,Gaviota State Park,805.968.1033,early mar-late dec,,CA,W,Goleta
-115.143,32.94,GECK,Gecko Loop - Imperial Sand Dunes OHV,760.337.4400,,few facil-paved road- toilets,CA,E,Brawley
-120.959,37.36,GEOR,George Hatfield State Rec Area,209.632.1852,mid may-late dec,,CA,SW,Hilmar
-120.392,38.975,GERL,Gerle Creek,530.644.2349/530.622.5061,mid may-late aug,,CA,NE,Pollock Pines
-120.792,39.139,GIAN,Giant Gap,530.367.2224/530.265.4531,mid may-late sep,,CA,N,Foresthill
-119.106,37.013,GIGA,Gigantea,559.855.5355/559.297.0706,,,CA,SE,Shaver Lake
-115.079,32.992,GLAM,Glamis Flats - Imperial Sand Dunes OHV,760.337.4400,,few facil-gravel surface- dumpsters- toilets,CA,E,Brawley
-118.99,37.752,GLAS,Glass Creek,760.647.3045/760.873.2400,,,CA,E,June Lake
-117.404,34.205,GLEH,Glen Helen Regional Park,909.887.7540,,,CA,NW,San Bernardino
-117.952,34.241,GLEN,Glenn Camp,626.335.1251/626.574.1613,,Nice clean campground,CA,N,Azusa
-120.541,38.009,GLOI,Gloryhole Rec Area- Ironhorse - USBR,209.536.9094,all year,some SFW sites may not have tables,CA,S,Angels Camp
-124.068,41.396,GOLB,Gold Bluffs Beach - Prarie Creek Redwoods State Park,707.465.7335,all year,,CA,N,Orick
-121.139,39.605,GOLT,Golden Trout Crossing,530.534.6500/530.283.2050,,,CA,NE,Marysville
-122.779,41.1,GOLF,Goldfield,530.275.1587/530.226.2500,,,CA,NW,Trinity Center
-118.456,35.874,GOLD,Goldledge,760.379.5646/559.784.1500,mid may-mid sep,,CA,N,Kernville
-118.275,36.988,GOOD,Goodale Creek,,,Closing May  2011 for improvements. Will have water and flush toilets when it reopens.,CA,N,Independence
-120.209,39.259,GOSM,Goose Meadow,530.587.3558/530.265.4531,mid may-late sep,,CA,S,Truckee
-118.178,34.222,GOUL,Gould Mesa,818.899.1900/626.574.1613,,,CA,NE,La Cañada Flintridge
-120.862,40.413,GOUM,Goumaz,530.257.4188/530.257.2151,,,CA,W,Susanville
-118.19,37.334,GRAD,Grandview,760.873.2500/760.873.2400,,,CA,NE,Big Pine
-119.27,37.542,GRAN,Granite Creek,559.877.2218/559.297.0706,,,CA,,
-120.204,39.3,GRAT,Granite Flat,530.587.3558/530.265.4531,mid may-late sep,,CA,SW,Truckee
-121.722,37.342,GRAC,Grant County Park,408.274.6121,,,CA,E,San Jose
-120.479,39.89,GRAS,Grasshopper Flat Family .,530.836.2575/530.283.2050,mid may-late sep,,CA,N,Portola
-123.887,41.857,GRAF,Grassy Flat,707.457.3131/707.442.1721,mid may-late aug,,CA,NE,Crescent City
-123.492,40.857,GRYF,Grays Falls,,,,CA,N,Burnt Ranch
-118.285,36.781,GRAY,Grays Meadow,760.876.6200/760.873.2400,early mar-late oct,,CA,W,Independence
-114.924,32.71,GRAY,Grays WellÂ Â Â OHV,760.337.4400,,paved access road- toilets,CA,W,Winterhaven
-119.278,38.11,GREK,Green Creek,760.932.7070/775.331.6444,,,CA,S,Bridgeport
-117.063,34.245,GREV,Green Valley,909.382.2782/909.382.2600,early may-late oct,,CA,E,Lake Arrowhead
-116.584,32.905,GRVV,Green Valley - Cuyamaca Rancho State Park,760.765.3020,,,CA,S,Julian
-118.557,35.739,GREE,Greenhorn Mountain Park,,,,CA,W,Wofford Heights
-122.254,40.826,GREC,Greens Creek,530.275.1587/530.226.2500,,,CA,NE,Redding
-120.955,40.157,GREN,Greenville Community Campground,530.283.0555/530.283.2050,,,CA,N,Greenville
-122.368,40.888,GREG,Gregory Creek,530.275.1587/530.226.2500,,,CA,SE,Lakehead
-119.565,37.399,GREY,Greys Mountain,559.877.2218/559.297.0706,,,CA,NE,Oakhurst
-123.218,41.807,GRIC,Grider Creek,,,,CA,SW,Seiad Valley
-122.525,39.592,GRIM,Grimy Gulch - Stony Gorge Reservoir - USBR,,,has picnic tables,CA,SE,Elk Creek
-120.474,39.887,GRIZ,Grizzly,530.836.2575/530.283.2050,mid may-late sep,,CA,N,Portola
-121.207,39.867,GRIF,Grizzly Creek,530.283.0555/530.283.2050,mid apr-mid oct,,CA,W,Quincy
-123.904,40.487,GRIR,Grizzly Creek Redwoods State Park,707.777.3683,all year,,CA,SE,Carlotta
-119.88,38.543,GROF,Grouse Flat,209.795.1381/209.533.3671,,,CA,NE,Bear Valley
-120.609,39.389,GROU,Grouse Ridge,530.288.3231/530.265.4531,,,CA,E,Nevada City
-119.838,38.7,GROV,Grover Hot Springs State Park,530.694.2248,mid may-late dec,,CA,W,Markleeville
-117.272,33.247,GUAJ,Guajome Park,760.724.4489,,res: 877.565.3600,CA,NE,Oceanside
-123.516,38.756,GUAL,Gualala Point Regional Park,707.785.2377,,,CA,SE,Gualala
-117.654,34.342,GUFF,Guffy,661.296.9710/626.574.1613,mid may-mid oct,,CA,SE,Big Pines
-119.082,37.773,GULL,Gull Lake,760.647.3045/760.873.2400,,,CA,SW,June Lake
-122.509,41.213,GUMB,Gumboot Lake,530.926.4511/530.226.2500,,,CA,SW,Mt.Shasta
-121.426,40.309,GURN,Gurnsey Creek,530.258.2141/530.257.2151,mid may-late sep,,CA,W,Chester
-120.181,37.996,HACI,Hacienda,209.586.3234/209.533.3671,,,CA,SE,Twain Harte
-122.445,37.466,HALM,Half Moon Bay State Beach,650 726.8819,all year,,CA,W,Half Moon Bay
-119.068,34.651,HALF,Halfmoon,661.245.3731/805.961.5778,,,CA,SW,Frazier Park
-121.074,40.018,HALL,Hallsted,530.283.0555/530.283.2050,early jun-late aug,,CA,NW,Quincy
-122.991,39.95,HAMM,Hammerhorn Lake,707.983.6118/530.934.3316,mid may-mid dec,,CA,NE,Willits
-120.497,39.311,HAMP,Hampshire Rocks,530.288.3231/530.265.4531,mid may-late sep,,CA,W,Soda Springs
-116.974,34.288,HANN,Hanna Flats,909.382.2790/909.382.2600,early may-late oct,,CA,NW,Fawnskin
-118.847,34.688,HARD,Hardluck,661.245.3731/805.961.5778,,,CA,SE,Maricopa
-121.785,41.457,HARR,Harris Springs,530.926.4511/530.226.2500,,,CA,,
-119.037,37.772,HART,Hartley Springs,760.647.3045/760.873.2400,,,CA,NW,Mammoth Lakes
-121.174,39.868,HASK,Haskins Valley,,,,CA,,
-121.447,40.668,HAT,Hat Creek,530.336.5521/530.257.2151,mid apr-late sep,,CA,SW,Old Station
-121.973,41.052,HAWK,Hawkins Landing,,,,CA,NW,Big Bend
-123.343,40.784,HAYD,Hayden Flat,530.623.2121/530.226.2500,,,CA,NW,Del Loma
-122.768,40.874,HAYW,Hayward Flat,530.275.1587/530.226.2500,mid may-mid sep,,CA,SW,Trinity Center
-120.531,38.739,HAZE,Hazel Creek  - Sly Park Recreation Area,530.644.2545,,,CA,SE,Pollock Pines
-121.615,41.585,HEAD,Headquarters,530.667.2246/530.233.5811,mid may-mid oct,,CA,,
-118.45,35.797,HEAQ,Headquarters,760.379.5646/559.784.1500,all year,,CA,NW,Kernville
-115.916,33.506,HEAR,Headquarters - Salton Sea State Rec Area,760.393.3052,early jun-late dec,,CA,SE,Mecca
-116.786,34.159,HEAB,Heart Bar,909.382.2790/909.382.2600,mid may-late sep,,CA,E,Angelus Oaks
-118.683,36.231,HENP,Hedrick Pond - State Forest,,,,CA,NE,Springville
-123.314,40.371,HELG,Hell Gate,530.628.5227/530.226.2500,,,CA,SW,Hayfork
-120.416,39.069,HELL,Hell Hole,530.333.4312/530.622.5061,mid may-mid oct,,CA,NE,Georgetown
-121.589,41.586,HEML,Hemlock,530.667.2246/530.233.5811,mid may-mid oct,,CA,W,Tionesta
-123.485,39.084,HEND,Hendy Woods State Park,707.895.3141,mid may-late dec,No RVs,CA,SE,Mendocino
-121.546,37.188,HENC,Henry Coe State Park,408.779.2728,all year,,CA,NE,Morgan Hill
-122.041,37.031,HENR,Henry Cowell Redwoods State Park,831.438.2396,early mar-late dec,,CA,SW,Scotts Valley
-119.884,38.543,HERM,Hermit Valley,209.795.1381/209.533.3671,,,CA,NE,Bear Valley
-119.932,38.244,HERC,Herring Creek,209.965.3434/209.533.3671,,,CA,NE,Bumblebee
-119.935,38.249,HERR,Herring Reservoir,209.965.3434/209.533.3671,,,CA,NE,Bumblebee
-117.252,34.386,HESP,Hesperia Lake Park,760.244.5951,,,CA,SE,Hesperia
-120.415,35.26,HIMO,Hi Mountain,805.925.9538/805.961.5778,,,CA,E,San Luis Obisp
-118.661,36.259,HIDF,Hidden Falls - State Forest,,,,CA,NE,Springville
-123.867,40.276,HIDS,Hidden Springs - Humbolt Redwoods State Park,707.946.1811,,,CA,SE,Weott
-116.163,34.017,HIDD,Hidden Valley - Joshua Tree National Park,760.367.5500,,,CA,SW,Twentynine Palms
-119.895,37.123,HIDV,Hidden View,559.673.5151,all year,,CA,NE,Madera
-121.306,40.339,HIGH,High Bridge,530.258.2141/530.257.2151,,,CA,NW,Chester
-119.807,38.489,HIGL,Highland Lakes,209.795.1381/209.533.3671,,,CA,NE,Arnold
-120.542,38.735,HILL,Hilltop  - Sly Park Recreation Area,530.644.2545,,,CA,SE,Pollock Pines
-122.249,40.866,HIRZ,Hirz Bay,530.275.1587/530.226.2500,mid may-late dec,,CA,E,Lakehead
-123.361,40.313,HOBA,Hobart Creek - Ruth Lake,707.574.6196,,,CA,SE,Mad River
-118.529,35.574,HOBO,Hobo,760.379.5646/559.784.1500,,,CA,SW,Lake Isabella
-123.153,40.929,HOBG,Hobo Gulch,530.623.2121/530.226.2500,,,CA,N,Junction City
-119.412,34.338,HOBS,Hobson Park,805.654.3951,,,CA,NW,Ventura
-119.868,37.797,HODG,Hodgdon Meadow - Yosemite National Park,209.372.0200,mid apr-late dec,,CA,E,Groveland
-116.896,34.303,HOLC,Holcomb Valley,909.382.2790/909.382.2600,,,CA,NW,Big Bear City
-121.561,40.31,HOLE,Hole In The Ground,530.258.2141/530.257.2151,,,CA,SE,Mineral
-115.398,35.044,HOLW,Hole In The Wall - Mojave National Preserve,760.252.6100,,,CA,N,Essex
-118.622,35.954,HOLM,Holey Meadow,,,,CA,E,Porterville
-118.676,37.553,HOLI,Holiday,760.873.2500/760.873.2400,,,CA,E,ammoth Lakes
-121.412,36.768,HOLL,Hollister Hills State Veh Rec Area,831.637.3874,,7 campgrounds - off road veh,CA,S,Hollister
-124.123,40.244,HOND,Honeydew,707.825.2300,all year,,CA,E,Honeydew
-119.321,38.2,HONE,Honeymoon,760.932.7070/775.331.6444,mid may-mid oct,,CA,SW,Bridgeport
-121.502,40.779,HONN,Honn Creek,530.336.5521/530.257.2151,,,CA,S,Hat Creek
-119.929,38.73,HOPE,Hope Valley,775.882.2766/775.331.6444,mid jul-late aug,,CA,SW,Woodfords
-118.956,36.391,HORC,Horse Creek,559.597.2301,,,CA,E,Visalia
-122.691,41.167,HORF,Horse Flat,530.275.1587/530.226.2500,,,CA,SE,Callahan
-118.01,34.343,HORL,Horse Flats,818.899.1900/626.574.1613,mid apr-mid nov,,CA,NE,La Canada
-118.373,35.899,HORM,Horse Meadow,760.379.5646/559.784.1500,,,CA,N,Kernville
-124.066,40.106,HORN,Horse Mountain,,,,CA,SW,Etterburg
-117.069,34.352,HORP,Horse Springs,909.382.2790/909.382.2600,,,CA,NW,Fawnskin
-120.115,35.021,HORS,Horseshoe,805.925.9538/805.961.5778,,,CA,E,Santa Maria
-120.242,37.7,HORB,Horseshoe Bend Rec Area,,,,CA,W,Coulterville
-118.576,37.367,HORT,Horton Creek,,,,CA,W,Bishop
-118.458,35.829,HOSP,Hospital Flat,760.379.5646/559.784.1500,mid may-mid sep,,CA,N,Kernville
-123.285,41.236,HOTE,Hotelling,,,,CA,W,Callahan
-122.992,39.878,HOWA,Howard Meadows/Lake,707.983.6118/530.934.3316,,2 campgrounds,CA,NE,Covelo
-120.969,41.486,HOWG,Howards Gulch,530.667.2246/530.233.5811,mid may-mid oct,,CA,NW,Canby
-120.042,38.094,HULL,Hull Creek,209.586.3234/209.533.3671,,,CA,NE,Mi-Wuk
-124.265,40.587,HUMB,Humboldt County Fairgrounds,,,,CA,N,Ferndale
-124.093,41.223,HUML,Humboldt Lagoons State Park,707.677.3570,,unknown facilities,CA,N,Trinidad
-118.908,36.794,HUME,Hume Lake,559.338.2251/559.784.1500,mid may-mid sep,,CA,NE,Hume
-118.474,35.671,HUNG,Hungry Gulch,760.379.5646/559.784.1500,mid may-mid sep,,CA,N,Lake Isabella
-118.871,34.792,HUNV,Hungry Valley State Veh Rec Area,661.248.7007,,9 camp areas along Gold Hill Rd. and Hungry Valley Rd.,CA,S,Lebec
-116.683,33.678,HURK,Hurkey Creek,951.659.2050,,,CA,SE,Mountain Center
-120.357,38.832,ICEH,Ice House,530.644.2349/530.622.5061,early jun-late sep,,CA,E,Pollock Pines
-123.059,41.331,IDLE,Idlewild,530.468.5351/530.842.6131,,,CA,SW,Etna
-116.716,33.748,IDYW,Idyllwild - Mount San Jacinto State Park,951.659.2607,all year,,CA,N,Idyllwild
-116.725,33.743,IDYL,Idyllwild County Park,,,,CA,W,Idyllwild
-114.467,32.871,IMPD,Imperial Dam LTVA,928.317.3200,,many areas - no facil - long term,CA,NW,Yuma
-118.208,36.797,INDE,Independence Creek,760.873.5577,,,CA,SW,Independence
-120.288,39.451,SPPC,Independence Lake,,,,CA,NW,Truckee
-116.158,34.094,INDC,Indian Cove - Joshua Tree National Park,760.362.4367,all year,,CA,SW,Twentynine Palms
-119.783,38.744,INDR,Indian Creek,,,hot showers,CA,N,Markleeville
-119.848,37.661,INDA,Indian Flat,559.297.0706,all year,,CA,W,El Portal
-116.659,33.349,INDF,Indian Flats,760.788.0250/626.574.1613,,,CA,N,Warner Springs
-120.643,38.421,INDG,Indian Grinding Rock State Park,209.296.7488,,,CA,NE,Pine Grove
-123.079,41.634,INDT,Indian Scotty,530.468.5351/530.842.6131,,,CA,W,Fort Jones
-120.57,39.329,INDS,Indian Springs,530.288.3231/530.265.4531,mid may-mid sep,,CA,E,Emigrant Gap
-120.981,39.513,INDV,Indian Valley,530.288.3231/530.265.4531,mid apr-mid oct,,CA,NE,Camptonville
-121.508,41.714,INDW,Indian Wells - Lava Bed National Monument,,,,CA,S,Tulelake
-118.589,37.246,INTA,Intake 2,760.873.2500/760.873.2400,,,CA,SW,Bishop
-121.405,41.054,INTE,Inter-Mountain Fair of Shasta county,530.336.5695,,RV park,CA,,McArthur
-118.712,37.518,IRIS,Iris Meadow,760.873.2500/760.873.2400,mid may-mid sep,,CA,SE,Mammoth Lakes
-120.535,37.985,IRON,Ironhorse- Glory Hole Area - New Melones Lake,209.536.9094,,,CA,,Angels Camp
-119.32,36.867,ISLA,Island Park,,,,CA,E,Fresno
-118.964,37.277,JACM,Jackass Meadow,559.855.5355/559.297.0706,early jun-mid sep,,CA,E,Lakeshore
-122.661,40.962,JACS,Jackass Spring,530.275.1587/530.226.2500,,,CA,SE,Trinity Center
-120.601,39.458,JACK,Jackson Creek,530.288.3231/530.265.4531,,,CA,,
-120.5,34.511,JALA,Jalama Beach,805.736.3504,,,CA,S,Lompoc
-120.764,41.88,JANE,Janes Reservoir,530.667.2246/530.233.5811,mid may-mid oct,,CA,NW,Alturas
-118.044,35.315,JAWB,Jawbone Canyon Off Hwy Area,760.384.5400,,unknown facil - off hwy veh area,CA,N,Mohave
-124.086,41.796,JEDE,Jedediah Smith Redwoods State Park,707.458.3018,mid may-late dec,,CA,NE,Crescent City
-120.546,38.729,JENK,Jenkinson  - Sly Park Recreation Area,530.644.2545,,,CA,SE,Pollock Pines
-119.839,37.546,JERS,Jerseydale,559.877.2218/559.297.0706,,,CA,NW,Oakhurst
-120.383,38.859,JONF,Jones Fork,530.644.2349/530.622.5061,mid may-mid oct,,CA,NE,Pollock Pines
-122.228,40.728,JONL,Jones Valley  (Lower),530.275.1587/530.226.2500,,,CA,NE,Redding
-122.23,40.73,JONU,Jones Valley  (Upper),530.275.1587/530.226.2500,mid mar-mid oct,dispersed,CA,NE,Redding
-115.801,33.674,JOSH,Joshua Tree South,,,unknown facil,CA,,
-122.124,41.817,JUAN,Juanita Lake,530.398.4391/530.842.6131,,,CA,W,Macdoel
-116.061,33.992,JUMB,Jumbo Rocks - Joshua Tree National Park,760.367.5500,,,CA,,
-119.251,37.938,JUNT,Junction,760.647.3045/760.873.2400,,,CA,W,Lee Vining
-123.063,40.746,JUNC,Junction City,,,,CA,NW,Junction City
-119.075,37.782,JUNE,June Lake,760.647.3045/760.873.2400,early may-late oct,,CA,N,June Lake
-121.294,40.451,JUNI,Juniper Lake - Lassen Volcanic National Park,530.595.4480,,,CA,E,Viola
-120.522,38.741,KANE,Kane XXX  - Sly Park Recreation Area,530.644.2545,,,CA,E,Pollock Pines
-122.641,41.335,KANG,Kangaroo Lake,,,,CA,SE,Etna
-120.159,39.114,KASP,Kaspian,530.543.2600/530.543.2600,mid may-mid oct,,CA,NW,South Lake Tahoe
-119.735,35.091,KCLP,KCL - Carrizo Plains,,,some shade,CA,,
-119.544,37.441,KELT,Kelty Meadow,559.877.2218/559.297.0706,mid may-late sep,,CA,NE,Oakhurst
-118.129,36.053,KENM,Kennedy Meadows,760.379.5646/559.784.1500,,,CA,NW,Pearsonville
-118.948,34.408,KENN,Kenney Grove County Park,,,,CA,NE,Santa Paula
-118.92,35.446,KERN,Kern River Park,,,,CA,NE,Bakersfield
-118.492,35.634,KEYE,Keyesville Rec Site,,,,CA,S,Wofford Heights
-124.003,40.018,KINR,King Range Conservation Area,,,,CA,W,Whitethorn
-118.928,34.716,KINC,Kings Camp,661.245.3731/805.961.5778,,,CA,SE,Maricopa
-122.767,39.903,KING,Kingsley Glade,530.934.1250/530.934.3316,mid may-mid nov,,CA,W,Paskenta
-119.177,37.253,KINN,Kinnikinnick,559.855.5355/559.297.0706,mid may-mid sep,,CA,W,Lakeshore
-119.149,36.879,KIRC,Kirch Flat,559.855.5355/559.297.0706,all year,,CA,SE,Prather
-121.496,35.99,KIRK,Kirk Creek,831.385.5434/805.961.5778,all year,operated under contract - no potable water,CA,SE,Lucia
-120.087,38.707,KIRW,Kirkwood Lake,209.295.4251/530.622.5061,mid jun-mid oct,,CA,NE,Pioneer
-119.896,38.776,KITC,Kit Carson,775.882.2766/775.331.6444,,,CA,NW,Markleeville
-117.048,32.786,MIST,Kumeyaay Lake Campground - Mission Trails Park,,,Fri Sat only,CA,,San Diego
-123.178,39.235,KYEN,Kyen,707.467.4200,,,CA,N,Ukiah
-120.26,35.353,LAPA,La Panza,805.925.9538/805.961.5778,,,CA,E,Santa Margarita
-116.448,32.888,LAGU,Laguna,619.445.6235/626.574.1613,all year,,CA,NE,Pine Valley
-121.755,36.579,LAGS,Laguna Seca,831.755.4899,,,CA,SW,Salinas
-117.722,34.391,LAKE,Lake,661.296.9710/626.574.1613,mid may-mid sep,,CA,W,Wrightwood
-120.005,38.477,LAKA,Lake Alpine,209.795.1381/209.533.3671,,,CA,NE,Arnold
-119.958,34.576,LKCH,Lake Cachuma,805.686.5055,,,CA,NW,Santa Barbara
-116.268,33.627,LKCP,Lake Cahuilla County Park,760.564.4712,,,CA,SE,La Quinta
-119.338,34.416,LKCA,Lake Casitas,805.649.2233,,10 campgrounds on north side of lake,CA,NW,Ventura
-116.584,32.987,LACU,Lake Cuyamaca Park,760.765.0515,,,CA,S,Julian
-117.374,33.677,LKEL,Lake Elsinore,951.471.1212,,,CA,W,Lake Elsinore
-120.119,39.184,LAKF,Lake Forest,,,,CA,NW,South Lake Tahoe
-119.009,37.602,LAKG,Lake George,760.924.5500/760.873.2400,,,CA,SW,Mammoth Lakes
-116.679,33.671,LAKH,Lake Hemet,,,,CA,S,Idyllwild
-116.891,32.861,LKJN,Lake Jennings,619.390.1623,,,CA,E,Lakeside
-119.007,37.607,LAKM,Lake Mary,760.924.5500/760.873.2400,early jun-late aug,,CA,SW,Mammoth Lakes
-120.297,37.523,LAKW,Lake McSwain Rec Area,,,,CA,E,Snelling
-116.523,32.686,LKMO,Lake Morena,858.565.3600,,res: 877.565.3600,CA,,
-120.885,35.759,LKNA,Lake Nacimiento,831.755.4899,all year,8 campgrounds,CA,NW,Paso Robles
-117.324,33.332,LAKL,Lake ONeill Military,760.725.5611,,military only - do not use our lat/lon - contact them for directions and info,CA,N,Oceanside
-117.177,33.869,LAKP,Lake Perris State Rec Area,951.940.5600,all year,,CA,NE,Perris
-118.761,34.474,LKPU,Lake Piru State Rec Area,805.521.1500,,,CA,NE,Piru
-117.031,33.581,LAKN,Lake Skinner,951.926.1541,,,CA,S,Winchester
-122.029,38.493,LAKU,Lake Solano County Park,530.795.2990,,,CA,SW,Winters
-120.634,39.322,LAKE,Lake Spaulding,916.386.5164,,,CA,W,Truckee
-120.661,39.701,LAKB,Lakes Basin Family .,530.836.2575/530.283.2050,mid may-late aug,,CA,SW,Graeagle
-122.388,40.872,LAKS,Lakeshore East,530.275.1587/530.226.2500,all year,,CA,S,Lakehead
-120.171,39.384,LAKD,Lakeside,530.587.3558/530.265.4531,mid may-late sep,,CA,N,Truckee
-118.882,36.764,LAND,Landslide,559.338.2251/559.784.1500,,,CA,SE,Hume
-116.261,32.722,LARK,Lark Canyon,,,,CA,N,Boulevard
-120.295,41.826,LASS,Lassen Creek,530.279.6116/530.233.5811,mid may-mid oct,,CA,NE,Canby
-121.203,40.335,LAST,Last Chance Creek,916.386.5164,,,CA,NE,Chester
-120.348,40.135,LAUF,Laufman Family .,530.836.2575/530.283.2050,mid apr-mid oct,,CA,SE,Milford
-121.337,41.403,LAVA,Lava Camp,530.299.3215/530.233.5811,,,CA,NW,Adin
-118.676,35.88,LEAV,Leavis Flat,559.539.2607/559.784.1500,all year,,CA,,
-119.552,38.333,LEAM,Leavitt Meadows,760.932.7070/775.331.6444,,,CA,S,Walker
-119.899,36.262,LEMO,Lemoore Naval Air Station Military,559.998.0837,,military only - do not use our lat/lon - contact them for directions and info,CA,SW,Lemoore
-118.933,34.049,LEOC,Leo Carrillo State Park,818 880.0363,all year,Store - tidepools - dogs on leash - shady area,CA,W,Santa Monica
-120.417,39.132,LEWI,Lewis,530.367.2224/530.265.4531,mid may-mid sep,,CA,E,Foresthill
-123.072,38.727,LIBE,Liberty Glen,,,,CA,NW,Healdsburg
-120.503,39.93,LIGH,Lightning Tree Family .,530.836.2575/530.283.2050,mid may-late sep,,CA,N,Portola
-118.976,37.007,LILY,Lily Pad,,,,CA,E,Shaver Lake
-121.518,36.01,LIMK,Limekiln State Park,831.667.2403,mid may-late dec,,CA,SE,Big Sur
-121.567,39.677,LIMS,Limesaddle - Lake Oroville State Rec Area,530.538.2200,all year,,CA,N,Oroville
-118.478,35.963,LIME,Limestone,760.379.5646/559.784.1500,,,CA,N,Kernville
-120.643,39.413,LIND,Lindsey Lake,530.288.3231/530.265.4531,,,CA,NE,Nevada City
-119.164,34.562,LION,Lions Canyon,,,,CA,NE,Ojai
-120.97,39.731,LITB,Little Beaver,530.534.6500/530.283.2050,,,CA,N,La Porte
-122.986,39.895,LITD,Little Doe,707.983.6118/530.934.3316,mid apr-mid nov,,CA,NE,Covelo
-119.336,37.4,LITJ,Little Jackass,559.877.2218/559.297.0706,,,CA,,
-117.83,34.348,LITM,Little Jimmy,818.899.1900/626.574.1613,,,CA,NE,La Canada
-120.514,39.49,LITL,Little Lasier Meadow,530.994.3401/530.265.4531,early jun-mid oct,,CA,SW,Sierraville
-121.26,39.782,LITN,Little North Fork,530.534.6500/530.283.2050,,,CA,NE,Berry Creek
-122.576,39.286,LITS,Little Stony,530.934.1250/530.934.3316,,RVs not recommended,CA,S,Stonyford
-117.557,33.54,LIVE,Live Oak - Caspers Wilderness Co Park,949.923.2210,,,CA,NE,San Juan Capis
-118.46,35.702,LIVO,Live Oak North & South,760.379.5646/559.784.1500,all year,,CA,SW,Wofford Heights
-121.632,39.276,LIVE,Live Oak Riverfront Park,530.822.7410,,,CA,,Live Oak
-121.447,39.529,LOAF,Loafer Creek - Lake Oroville State Rec Area,530.538.2200,all year,,CA,E,Oroville
-120.599,39.299,LODP,Lodgepole,916.386.5164,,,CA,W,Cisco
-118.728,36.605,LODG,Lodgepole - Sequoia National Park,559.565.4487,all year,,CA,NE,Giant Forest
-120.024,38.476,LODO,Lodgepole Overflow,209.795.1381/209.533.3671,,,CA,NE,Bear Valley
-120.66,39.565,LOGA,Loganville,530.288.3231/530.265.4531,mid apr-mid oct,,CA,W,Sierra City
-120.131,39.464,LOGG,Logger,530.587.3558/530.265.4531,mid may-late sep,,CA,N,Truckee
-118.184,36.598,LONP,Lone Pine,760.876.6200/760.873.2400,early apr-late oct,,CA,W,Lone Pine
-120.385,38.864,LONE,Lone Rock,530.644.2349/530.622.5061,,,CA,NW,Kyburz
-120.613,40.192,LONR,Lone Rock,530.283.0555/530.283.2050,mid may-mid oct,,CA,NE,Taylorsville
-120.58,40.178,LONG,Long Point,530.283.0555/530.283.2050,early jun-late aug,,CA,NE,Taylorsville
-118.161,35.844,LONV,Long Valley,661.391 6000,,,CA,,
-120.073,39.589,LOOK,Lookout,775.882.2766/775.331.6444,,,CA,W,Reno
-120.316,38.981,LOON,Loon Lake,530.644.2349/530.622.5061,mid jun-late sep,,CA,NE,Pollock Pines
-120.457,35.19,LOPE,Lopez Lake Rec Area,805.788.2381,,,CA,NE,Arroyo Grande
-118.05,33.796,LOSA,Los Alamitos Army Military,562.795.2124,,military only - do not use our lat/lon - contact them for directions and info,CA,E,Los Alamitos
-118.809,34.703,LOSA,Los Alamos,661.296.9710/626.574.1613,,,CA,S,Gorman
-120.939,36.987,LOSB,Los Banos Creek - San Luis Reservoir,209.826.1197,all year,,CA,S,Gustine
-120.573,36.232,LOSG,Los Gatos Creek Park,559.488.3004,,,CA,NW,Coalinga
-119.8,34.54,LOSP,Los Prietos,805.967.3481/805.961.5778,early mar-mid oct,,CA,NW,Santa Barbara
-120.048,37.821,LOST,Lost Claim,209.962.7825/209.533.3671,,,CA,E,Groveland
-119.733,36.975,LOSL,Lost Lake,559.488.3004,,,CA,N,Fresno
-123.143,41.595,LOVC,Lovers Camp,,,,CA,W,Fort Jones
-119.924,38.612,LWBL,Lower Blue Lake,,,,CA,S,Tahoe City
-121.215,39.902,LOWB,Lower Bucks,530.283.0555/530.283.2050,,,CA,W,Quincy
-119.384,37.413,LOWC,Lower Chiquito,559.877.2218/559.297.0706,,,CA,NE,Fresno
-119.009,37.721,LOWD,Lower Deadman,760.647.3045/760.873.2400,,,CA,N,Mammoth Lakes
-122.375,38.809,LOWH,Lower Hunting Creek  - Knoxville Rec Area,,,,CA,SE,Clearlake
-119.158,37.928,LOWV,Lower Lee Vining,760.647.3045/760.873.2400,,,CA,SW,Lee Vining
-120.236,39.486,LOWT,Lower Little Truckee,530.994.3401/530.265.4531,mid apr-mid oct,,CA,SE,Sierraville
-122.825,39.443,LOWN,Lower Nye,707.275.2361/530.934.3316,mid may-mid nov,,CA,N,Upper Lake
-118.493,36.066,LOWM,Lower Peppermint,559.539.2607/559.784.1500,,,CA,N,Kernville
-118.724,37.471,LOWP,Lower Pine Grove,760.873.2500/760.873.2400,,,CA,W,Bishop
-119.571,37.742,LOWE,Lower Pines - Yosemite National Park,209.372.0200,early apr-late oct,,CA,E,Yosemite Village
-120.878,41.293,LOWR,Lower Rush Creek,530.299.3215/530.233.5811,all year,,CA,NE,Adin
-122.352,40.843,LOWS,Lower Salt Creek,530.275.1587,all year,dispersed,CA,S,Lakehead
-119.323,38.17,LOWL,Lower Twin Lake,760.932.7070/775.331.6444,mid may-mid sep,,CA,SW,Bridgeport
-120.049,37.839,LUMD,Lumsden,209.962.7825/209.533.3671,all year,,CA,E,Groveland
-120.032,37.848,LUMS,Lumsden Bridge,209.962.7825/209.533.3671,all year,,CA,E,Groveland
-119.207,38.034,LUND,Lundy Lake Park,760.932.5231,,,CA,NW,Lee Vining
-117.667,34.329,LUPI,Lupine,661.296.9710/626.574.1613,all year,,CA,SW,Wrightwood
-122.201,38.509,LUPI,Lupine Shores - Lake Berryessa - USBR,707.966.9088,,,CA,N,Napa
-119.544,37.308,LUPN,Lupine/Cedar Bluff,559.877.2218/559.297.0706,,,CA,E,Oakhurst
-123.794,39.493,MACK,MacKerricher State Park,707.964.9112,mid may-late dec,,CA,N,Mendocino
-123.466,40.403,MADD,Mad River,707.574.6233/707.442.1721,,,CA,E,Fortuna
-122.094,40.924,MADN,Madrone,530.275.1587/530.226.2500,,,CA,NE,Redding
-117.068,36.231,MAHO,Mahogany Flat - Death Valley National Park,760.786.3200,ealry mar-late nov,high clearance - 4 wheel drive,CA,,
-118.483,35.643,MAID,Main Dam,760.379.5646/559.784.1500,,,CA,N,Lake Isabella
-122.708,39.303,MAIN,Main Letts,530.934.1250/530.934.3316,,,CA,SW,Stonyford
-120.9,39.373,MALA,Malakoff Diggins State Park,530.265.2740,all year,,CA,NE,Nevada City
-118.714,34.097,MALU,Malibu Creek - State Park,818.880.0367,all year,,CA,NE,Malibu
-119.337,37.344,MAMM,Mammoth Pool,559.877.2218/559.297.0706,mid may-late sep,,CA,NE,North Fork
-123.699,38.981,MANC,Manchester State Park,707.882.2463,mid may-late dec,,CA,NW,Manchester;
-117.631,34.265,MANK,Manker,626.335.1251/626.574.1613,mid may-mid oct,,CA,NE,Claremont
-121.853,36.92,MANR,Manresa State Beach,831.761.1795,early mar-late dec,,CA,SE,Aptos
-120.505,37.978,MANZ,Manzanita - Tuttletown Area - New Melones Lake,209.536.9094,all year,,CA,SW,Columbia
-122.267,38.599,MANZ,Manzanita Canyon - Lake Berryessa - USBR,707.966.9088,,,CA,N,Napa
-121.561,40.531,MANZ,Manzanita Lake - Lassen Volcanic National Park,530.595.6121,early jun-mid oct,,CA,E,Viola
-117.25,33.893,MARC,March ARB Military,951.655.2816,,military only - do not use our lat/lon - contact them for directions and info,CA,,
-119.216,34.88,MARI,Marian,661.245.3731/805.961.5778,,,CA,NW,Pine Mt Club
-122.77,40.84,MARR,Mariners Roost,530.275.1587/530.226.2500,,,CA,S,Trinity Center
-116.732,33.792,MARM,Marion Mountain,909.382.2922/909.382.2600,early jun-late aug,,CA,N,Idyllwild
-119.944,37.465,MAPO,Mariposa Fairgrounds,209.966.2432,,,CA,SE,Mariposa
-119.776,38.698,MARK,Markleeville,775.882.2766/775.331.6444,,,CA,NE,Markleeville
-118.977,37.077,MRMT,Marmot Rock,,,small rvs,CA,E,Shaver Lake
-122.205,41.796,MART,Martins Dairy,530.398.4391/530.842.6131,,,CA,E,Montague
-120.121,39.323,MARC,Martis Creek Lake,,,,CA,E,Truckee
-122.807,40.732,MARY,Mary Smith,530.275.1587/530.226.2500,,,CA,N,Lewiston
-123.213,41.188,MATT,Matthews,530.468.5351/530.842.6131,,,CA,SW,Etna
-124.356,40.289,MATO,Mattole Beach,,,,CA,SW,Petrolia
-114.534,33.671,MAYF,Mayflower Park,760.922.4665,,,CA,NE,Blythe
-121.646,41.017,MCAR,McArthur - Burney Falls State Park,530.335.2777,mid may-late dec,,CA,N,Burney
-122.282,41.353,MCBR,Mcbride Springs,530.926.4511/530.226.2500,,,CA,SW,Mt. Shasta
-120.003,37.597,MCCA,McCabe Flat,,,swim in river,CA,N,Mariposa
-122.245,40.936,MCCL,McCloud Bridge,530.275.1587/530.226.2500,,,CA,E,Lakehead
-120.276,37.609,MCCP,McClure Point Rec Area,,,,CA,NE,Snelling
-120.711,37.416,MCCO,McConnell State Rec Area,209.394.7755,all year,,CA,S,Ballico
-121.735,40.538,MACU,Mccumber Reservoir,,,,CA,NW,Viola
-118.785,37.564,MCGE,McGee Creek,760.935.4213,early may-late oct,,CA,SE,Mammoth Lakes
-119.102,34.814,MCGI,McGill,,early jun-late sep,,CA,W,Frazier Park
-119.257,34.227,MCGR,McGrath State Beach,805.968.1033,early mar-late dec,,CA,NW,Oxnard
-120.646,39.459,MCMU,McMurray,,,,CA,NE,Nevada City
-120.501,39.408,MEAL,Meadow Lake,530.994.3401/530.265.4531,,,CA,W,Truckee
-120.213,40.036,MEAD,Meadow View,530.836.2575/530.283.2050,mid apr-mid sep,,CA,W,Doyle
-120.005,38.186,MEAV,Meadowview,209.965.3434/209.533.3671,,,CA,NE,Mi-Wuk
-115.902,33.489,MECC,Mecca Beach  - Salton Sea State Rec Area,760.393.3052,early jun-late dec,,CA,SE,Mecca
-121.029,37.065,MEDE,Medeiros State Rec Area - San Luis Reservoir,209.826.1197,all year,,CA,S,Gustine
-121.595,41.588,MEDI,Medicine,530.667.2246/530.233.5811,mid jun-mid sep,,CA,W,Tionesta
-118.785,37.564,MEEC,Mee Creek,760.873.2500/760.873.2400,,,CA,SE,Mammoth Lakes
-120.123,39.035,MEEK,Meeks Bay,530.543.2600/530.543.2600,mid may-mid oct,,CA,NE,Meeks Bay
-121.466,36.118,MEMO,Memorial Park,831.385.5434/805.961.5778,,,CA,SW,Greenfield
-120.81,40.55,MERR,Merrill,530.257.4188/530.257.2151,mid may-late aug,,CA,NW,Susanville
-117.367,36.964,MESQ,Mesquite Spring - Death Valley National Park,760.786.3200,all year,,CA,NW,Furnace Creek
-118.191,34.38,MESS,Messenger Flats,,,,CA,N,La Canada
-115.435,35.132,MIDH,Mid Hills - Mojave National Preserve,760.252.6100,,,CA,,
-122.95,39.253,MIDC,Middle Creek,707.275.2361/530.934.3316,,,CA,N,Upper Lake
-119.937,38.627,MIDD,Middle Creek/Expansion,,,,CA,NE,Jackson
-119.166,34.55,MIDL,Middle Lion,805.646.4348/805.961.5778,,,CA,NE,Ojai
-119.58,34.51,MIDS,Middle Santa Ynez,805.967.3481/805.961.5778,,hot springs nearby,CA,N,Summerland
-120.301,38.583,MIDF,Middlefork Cosumnes,209.295.4251/530.622.5061,mid may-mid nov,Site no 19 is lg camp at end of campground,CA,E,Placerville
-114.659,33.727,MIDL,Midland LTVA,,,long term vistor area - no facil,CA,NW,Blythe
-114.915,32.716,MIDW,MidwayÂ Â OHV,760.337.4400,,paved road- toilets,CA,W,Winterhaven
-119.19,34.854,MILP,Mil Potrero Park,,,,CA,W,Frazier Park
-122.654,39.356,MILC,Mill Creek,530.934.1250/530.934.3316,,,CA,W,Stonyford
-121.188,39.914,MILK,Mill Creek,530.283.0555/530.283.2050,,,CA,W,Quincy
-119.937,38.302,MILR,Mill Creek,209.965.3434/209.533.3671,,,CA,NE,Mi-Wuk
-124.097,41.703,MLCR,Mill Creek - Del Norte Coast Redwoods State Park,707.465.7332,mid may-mid sep,,CA,SE,Crescent City
-120.288,41.277,MILE,Mill Creek Falls,530.279.6116/530.233.5811,mid jun-mid oct,,CA,E,Likely
-119.095,36.857,MILF,Mill Flat,559.338.2251/559.784.1500,,,CA,E,Frseno
-122.706,39.318,MILV,Mill Valley,530.934.1250/530.934.3316,,,CA,SW,Stonyford
-118.145,34.219,MILA,Millard,818.899.1900/626.574.1613,,,CA,N,Pasadena
-123.456,40.453,MILS,Miller Spring,530.628.5227/530.226.2500,,,CA,E,Mad River
-119.682,37.025,MILT,Millerton Lake State Rec Area,559.822.2332,all year,,CA,NE,Friant
-118.493,37.378,MILP,Millpond,760-873-5342,,,CA,W,Bishop
-121.269,39.707,MLSP,Milsap Bar,530.534.6500/530.283.2050,mid apr-mid oct,,CA,E,Brush Creek
-119.084,37.64,MINA,Minaret Falls,760.924.5500/760.873.2400,,,CA,W,Mammoth Lakes
-120.924,39.101,MINB,Mineral Bar - Auburn State Rec Area,530.885.4527,,,CA,E,Colfax
-122.812,40.852,MINE,Minersville,530.275.1587/530.226.2500,,,CA,SW,Trinity Center
-120.038,35.035,MIRA,Miranda Pines,805.925.9538/805.961.5778,,,CA,E,Santa Maria
-114.514,34.727,MOAB,Moabi Regional Park,760.326.3831,all year,coin showers - on Colorado River - unlimited tent camping - 24 hr security gate,CA,SE,Needles
-120.342,37.83,MOCC,Moccasin Point - Don Pedro State Rec Area,209.852.2396,,,CA,W,Groveland
-120.659,37.659,MODE,Modesto Reservoir,209.874.9540,,,CA,E,Waterford
-117.275,34.515,MOJA,Mojave Narrows Regional Park,760.245.2226,all year,,CA,SE,Victorville
-117.264,34.331,MOJR,Mojave River Forks Regional Park,760.389.2322,all year,,CA,S,Hesperia
-120.271,38.478,MOKE,Mokelumne,209.295.4251/530.622.5061,,,CA,E,Jackson
-120.271,38.478,MOKR,Mokelumne River,209.795.1381/209.533.3671,,,CA,E,West Point
-118.994,37.357,MONO,Mono Creek,559.855.5355/559.297.0706,early jun-mid sep,,CA,NE,Lakeshore
-119.018,37.326,MONH,Mono Hot Springs,559.855.5355/559.297.0706,early jun-mid sep,,CA,NE,Lakeshore
-120.881,35.275,MONR,Montana de Oro State Park,805.528.0513,all year,,CA,SW,Los Oso
-118.11,34.343,MONC,Monte Cristo,818.899.1900/626.574.1613,,,CA,NE,La Canada
-121.862,36.595,MONF,Monterey County Fairgrounds RV,831.657.9347,,,CA,E,Monterey
-121.861,36.59,MONT,Monterey Pines RV Military,831.656.7563,,military only - do not use our lat/lon - contact them for directions and info,CA,E,Monterey
-122.224,40.889,MOOC,Moore Creek,530.275.1587/530.226.2500,mid may-mid sep,,CA,E,Lakehead
-120.267,38.48,MOOR,Moore Creek,209.795.1381/209.533.3671,mid may-late aug,,CA,SE,Pollock Pines
-118.661,36.786,MORN,Moraine - Kings Canyon National Park,559.565.3341,,,CA,SE,Cedar Grove
-120.841,35.333,MORR,Morro Bay State Park,805.772.2560,all year,,CA,S,Morro Bay
-120.883,35.428,MORS,Morro Strand State Beach,805.772.2560,mid may-late dec,,CA,NW,Morro Bay
-118.655,36.246,MOSG,Moses Gulch - State Forest,,,,CA,NE,Springville
-118.746,37.438,MOSF,Mosquito Flat,760.924.5500/760.873.2400,,walk to sites only,CA,SE,Mammoth Lakes
-119.913,38.516,MOSL,Mosquito Lakes,209.795.1381/209.533.3671,,,CA,NE,Bear Valley
-122.712,42.075,MOUA,Mount Ashland,,,,CA,,
-121.702,37.001,MOUN,Mount Madonna,408.355.2201,,,CA,W,Gilroy
-118.567,37.224,MTGL,Mountain Glen,760.873.2500/760.873.2400,mid may-mid sep,,CA,SW,Bishop
-117.729,34.395,MOUO,Mountain Oak,661.296.9710/626.574.1613,mid may-late oct,,CA,NW,Wrightwood
-119.107,34.81,MTPI,Mt Pinos,661.245.3731/805.961.5778,,,CA,W,Frazier Park
-121.933,37.851,MTDI,Mt. Diablo State Park,925.837.2525,all year,3 campgrounds,CA,SE,Walnut Creek
-118.034,34.383,MTPA,Mt. Pacifico,818.899.1900/626.574.1613,mid may-mid sep,,CA,N,Pasadena
-123.075,41.356,MULE,Mule Bridge,,,,CA,SW,Etna
-121.395,36.005,NACI,Nacimiento,831.385.5434/805.961.5778,,,CA,SE,Big Sur
-124.006,40.021,NADE,Nadelos,,,,CA,W,Whitethorn
-122.586,38.583,NAPF,Napa County Fairgrounds,707.942.5111,,,CA,NW,Calistoga
-122.278,38.296,NAPV,Napa Valley Expo,707.253.4900,,RV park,CA,E,Napa
-123.665,39.171,NAVV,Navarro River Redwoods State Park,707 937.5804,,,CA,SE,Albion
-122.957,39.442,NAVY,Navy Camp - Lake Pillsbury,707.275.2361/530.934.3316,,,CA,NE,Ukiah
-119.584,37.432,NELD,Nelder Grove,559.877.2218/559.297.0706,,,CA,N,Fresno
-122.345,40.849,NELS,Nelson Point,530.275.1587/530.226.2500,early jun-late aug,,CA,N,OBrien
-119.292,34.803,NETT,Nettle Springs,661.245.3731/805.961.5778,,,CA,S,Maricopa
-121.077,39.206,NEVA,Nevada County Fairgrounds,530.273.6217,,,CA,SW,Grass Valley
-121.937,36.983,NEWB,New Brighton State Beach,831.464.6330,all year,,CA,NE,Capitola
-118.96,37.649,NEWS,New Shady Rest,760.924.5500/760.873.2400,early may-mid nov,,CA,E,Mammoth Lakes
-119.914,38.325,NIAG,Niagra Creek,209.965.3434/209.533.3671,,,CA,NE,Mi-Wuk
-119.937,34.77,NIRA,Nira,805.925.9538/805.961.5778,,,CA,NE,Santa Ynez
-123.311,41.647,NORC,Norcross,,,equestrian,CA,S,Happy Camp
-123.362,41.299,NORD,Nordheimer,530.627.3291/707.442.1721,,,CA,E,Orleans
-121.648,40.597,NORT,North Battle Creek Reservoir,,,,CA,N,Viola
-120.635,35.133,NORS,North Beach - Pismo State Beach,,all year,,CA,NW,Oceano
-120.718,40.735,NORG,North Eagle Lake,,,,CA,N,Susanville
-123.961,41.979,NORF,North Fork,707.457.3131/707.442.1721,,rough road - RVs not recommended,CA,,
-122.648,39.379,NORK,North Fork,530.934.1250/530.934.3316,,,CA,W,Stonyford
-121.22,40.04,NORM,North Fork,530.283.0555/530.283.2050,,,CA,NW,Quincy
-120.657,39.27,NORR,North Fork,530.288.3231/530.265.4531,mid may-mid sep,,CA,NE,Dutch Flat
-123.017,40.332,NORB,North Fork Beegum Creek F,530.628.5227/530.226.2500,,,CA,W,Platina
-118.627,37.227,NORL,North Lake,760.873.2500/760.873.2400,mid jun-mid sep,,CA,SW,Bishop
-119.567,37.742,NORP,North Pines - Yosemite National Park,209.372.0200,mid apr-late sep,,CA,E,Yosemite Village
-117.164,34.268,NORE,North Shore,909.382.2782/909.382.2600,early may-late sep,,CA,NW,Running Springs
-121.65,41.034,NOSH,North Shore,,,,CA,,
-120.991,35.881,NOSS,North Shore San Antonio,831.755.4895,,,CA,W,Bradley
-120.311,39,NORS,Northshore,530.644.2349/530.622.5061,mid jun-mid oct,,CA,NE,Pollock Pines
-120.347,38.831,NORW,Northwind,530.644.2349/530.622.5061,mid may-mid oct,,CA,E,Placerville
-123.116,41.809,OAKB,Oak Bottom,530.627.3291/707.442.1721,mid apr-late oct,,CA,NE,Somes Bar
-118.722,34.6,OAKL,Oak Flat,661.296.9710/626.574.1613,,,CA,NW,Castaic
-122.953,39.444,OAKF,Oak Flat - Lake Pillsbury,707.275.2361/530.934.3316,,,CA,NE,Calpella
-122.953,39.443,OAFL,Oak Flat Overflow - Lake Pillsbury,707.275.2361/530.934.3316,,,CA,N,Upper Lake
-122.352,40.85,OAKG,Oak Grove,530.275.1587/530.226.2500,,,CA,,
-116.789,33.386,OAKR,Oak Grove,760.788.0250/626.574.1613,,,CA,NW,Warner Springs
-120.79,38.181,OAKK,Oak Knoll - New Hogan Lake,209.772.1343,mid may-late aug,,CA,E,Valley Springs
-118.819,34.289,OAKP,Oak Park,,,,CA,NW,Simi Valley
-118.182,34.246,OAKW,Oakwilde,818.899.1900/626.574.1613,,,CA,N,La Cañada Flintridge
-116.876,33.343,OBSE,Observatory,760.788.0250/626.574.1613,mid may-mid oct,,CA,N,Palomar Mountain
-119.449,38.3,OBSI,Obsidian,760.932.7070/775.331.6444,early jun-late sep,,CA,S,Walker
-120.627,35.106,OCEA,Oceano County,805.781.4900,,,CA,NW,Oceano
-120.617,35.093,OCEA,Oceano Dunes State Veh Rec Area,805.773.7170/805.473,,few facil,CA,SW,Oceano
-116.167,33.151,OCOT,Ocotillo Wells State Vehicle Area,760.767.5391,early oct - late may,tables - ramadas,CA,W,Ocotillo Wells
-119.071,37.799,OHRI,Oh Ridge,760.647.3045/760.873.2400,early may-late sep,,CA,N,June Lake
-122.645,39.309,OLDM,Old Mill,530.934.1250/530.934.3316,,,CA,SW,Stonyford
-118.964,37.648,OLDS,Old Shady Rest,760.924.5500/760.873.2400,early jun-late aug,,CA,E,Mammoth Lakes
-123.451,41.377,ONEI,Oneil Creek,530.493.2243/530.842.6131,,,CA,SW,Seiad Valley
-117.604,33.657,ONRP,ONeill Regional Park,949.923.2260,,,CA,SW,Trabuco Canyon
-118.341,36.772,ONIO,Onion Valley,760.876.6200/760.873.2400,mid jun-mid sep,,CA,W,Independence
-122.353,39.772,ORLA,Orland Buttes Rec Area,530.865.4781,early apr-mid sep,,CA,W,Orland
-121.987,41.663,ORRL,Orr Lake,530.398.4391/530.842.6131,,,CA,S,Macdoel
-117.553,33.539,ORTE,Ortega Flats - Caspers Wilderness Co Park,,,,CA,E,San Juan Capis
-115.133,32.983,OSBO,Osborne Overlook - Imperial Sand Dunes OHV,760.337.4400,,no facil-nonmaintained- gravel surface,CA,E,Brawley
-117.022,35.022,OWLC,Owl Canyon,,,lovely desert hills - shade only over tables,CA,N,Barstow
-119.329,34.694,OZEN,Ozena,661.245.3731/805.961.5778,,,CA,W,Frazier Park
-119.902,38.517,PACI,Pacific Valley,209.795.1381/209.533.3671,,,CA,NE,Bear Valley
-120.648,39.624,PACK,Packsaddle,530.288.3231/530.265.4531,early jun-mid oct,,CA,N,Sierra City
-115.168,32.961,PAD1,Pads  - Imperial Sand Dunes OHV,760.337.4400,,3 areas along rd - no facil-gravel surface,CA,E,Brawley
-115.137,32.934,PAD2,Pads - Imperial Sand Dunes OHV,760.337.4400,,5 areas along rd - no facil-gravel surface,CA,E,Brawley
-119.322,38.179,PAHA,Paha,760.932.7070/775.331.6444,mid may-mid sep,,CA,SW,Bridgeport
-115.999,33.617,PAIN,Painted Canyon,,,dispersed - unknown facil - flash floods,CA,NE,Mecca
-118.719,37.495,PALI,Palisade,760.873.2500/760.873.2400,,,CA,SE,Mammoth Lakes
-115.946,33.328,PALM,Palm Beach Dry Camp,760.394.4446,,,CA,SE,Thermal
-114.725,33.399,PALO,Palo Verde County Park,,,,CA,S,Palo Verde
-115.091,32.994,PALO,Palo Verde Flats - Imperial Sand Dunes OHV,760.337.4400,,no facil-nonmaintained- gravel surface,CA,E,Brawley
-117.467,36.339,PANS,Panamint Springs,775.482.7680,,privately owned - restaurant - some shade,CA,E,Panamint Springs
-118.571,35.809,PANO,Panorama,,,,CA,E,Posey
-123.929,41.843,PANF,Panther Flat,707.457.3131/707.442.1721,mid may-late dec,,CA,E,Gasquet
-122.202,41.355,PANT,Panther Meadows,530.926.4511/530.226.2500,,Walk-in only,CA,NW,Mccloud
-119.811,34.542,PARA,Paradise,805.967.3481/805.961.5778,all year,,CA,NW,Santa Barbara
-118.425,35.651,PARC,Paradise Cove,760.379.5646/559.784.1500,all year,,CA,NE,Lake Isabella
-120.24,38.537,PARP,Pardoes Point,209.295.4251/530.622.5061,mid may-mid nov,,CA,E,Pioneer
-116.583,32.958,PASO,Paso Picacho - Cuyamaca Rancho State Park,760.765.3020,all year,visitor says- bring lots of wood,CA,S,Julian
-120.534,39.506,PASS,Pass Creek,530.994.3401/530.265.4531,early jun-mid oct,,CA,NW,Truckee
-123.846,41.872,PATR,Patrick Creek,707.457.3131/707.442.1721,mid may-late aug,,CA,NE,Crescent City
-124.156,41.136,PATP,Patricks Point State Park,707.677.3570,early mar-late dec,,CA,N,Trinidad
-120.186,41.198,PATT,Patterson,530.279.6116/530.233.5811,mid may-mid oct,,CA,SW,Eagleville
-121.561,41.555,PAYN,Payne Springs,530.667.2246/530.233.5811,mid jul-mid oct,,CA,NE,McCloud
-123.519,41.309,PEAR,Pearch Creek,530.627.3291/707.442.1721,mid apr-mid oct,,CA,NE,Orleans
-121.075,38.789,PENS,Peninsula - Folsom Lake State Rec Area,916.988.0205,,,CA,NE,Folsom
-120.98,39.724,PENI,Peninsula Tent (Family ),530.534.6500/530.283.2050,mid may-mid oct,Tent Only,CA,N,La Porte
-122.93,39.301,PENN,Penny Pines,707.275.2361/530.934.3316,,,CA,N,Upper Lake
-120.241,41.45,PEPP,Pepperdine,530.279.6116/530.233.5811,mid jul-mid oct,,CA,E,Alturas
-122.783,38.247,PETA,Petaluma Lake Area Military,707.765.7341,,military only - do not use our lat/lon - contact them for directions and info,CA,W,Petaluma
-121.783,36.249,PFEI,Pfeiffer Big Sur State Park,831.667.2315,mid may-late dec,,CA,SE,Big Sur
-121.467,40.028,PHLB,Philbrook - Feather River,,,,CA,NE,Paradise
-123.191,40.466,PHIL,Philpot,530.628.5227/530.226.2500,,,CA,S,Hayfork
-114.673,33.034,PICA,Picacho State Rec Area,760.996.2963,,,CA,N,Winterhaven
-119.803,38.34,PIGF,Pigeon Flat,209.965.3434/209.533.3671,,,CA,W,Bridgeport
-123.13,40.767,PIGP,Pigeon Point,530.623.2121/530.226.2500,,,CA,NW,Junction City
-120.511,34.726,LINC,Pine Canyon Military - Vandenberg AFB,805.606.8579,,military only - do not use our lat/lon - contact them for directions and info,CA,,
-119,37.604,PINC,Pine City,760.924.5500/760.873.2400,,,CA,SW,Mammoth Lakes
-120.557,38.727,PINE,Pine Cone  - Sly Park Recreation Area,530.644.2545,,,CA,SE,Pollock Pines
-119.338,36.829,PINF,Pine Flat Rec Area,559.488.3004,,,CA,E,Fresno
-118.955,37.649,PING,Pine Glen - Mammouth Lakes,,early jun-mid sep,,CA,E,Mammoth Lakes
-116.886,34.236,PINK,Pine Knot,909.382.2790/909.382.2600,early may-late oct,,CA,SW,Big Bear
-119.989,38.482,PNMT,Pine Marten,209.795.1381/209.533.3671,,,CA,NE,Bear Valley
-119.329,34.639,PINM,Pine Mountain,805.646.4348/805.961.5778,,,CA,N,Ojai
-122.247,40.927,PINP,Pine Point,530.275.1587/530.226.2500,mid may-late aug,,CA,N,Redding
-119.133,34.692,PINS,Pine Springs,661.245.3731/805.961.5778,,,CA,SW,Frazier Park
-119.995,38.19,PINR,Pinecrest,209.965.3434/209.533.3671,early may-mid oct,,CA,NE,Mi-Wuk
-121.141,36.499,PINL,Pinnacles,831.389.4538,all year,has pool,CA,E,Pinnacles
-121.767,36.95,PINT,Pinto Lake Park,831.722.8129,,,CA,N,Watsonville
-116.455,33.585,PINY,Pinyon Flat,909.382.2922/909.382.2600,,,CA,SW,Palm Desert
-118.486,35.651,PION,Pioneer Point,760.379.5646/559.784.1500,early jun-mid sep,,CA,N,Lake Isabella
-120.433,38.567,PIPI,Pipi,209.295.4251/530.622.5061,mid apr-late sep,,CA,NE,Pioneer
-121.506,40.992,PITR,Pit River,530.233.4666,,,CA,NE,Burney
-121.553,40.921,PITC,Pit River/Cassel,916.386.5164,,,CA,NE,Burney
-119.362,37.373,PLAC,Placer,559.877.2218/559.297.0706,,,CA,NE,Fresno
-121.295,38.759,PLAF,Placer County Fair RV,916.786.2023,,,CA,NW,Roseville
-121.467,35.918,PLAT,Plaskett Creek,831.385.5434/805.961.5778,all year,Temporary non-potable water in Oct 2010,CA,SE,Lucia
-122.845,39.729,PLAM,Plaskett Meadows,530.934.1250/530.934.3316,mid may-mid nov,,CA,NW,Elk Creek
-120.293,39.014,PLEA,Pleasant,530.644.2349/530.622.5061,,no facilities,CA,,
-118.505,37.407,PLEV,Pleasant Valley,760.878.0272,,,CA,NW,Bishop
-120.326,41.713,PLUM,Plum Valley,530.279.6116/530.233.5811,,,CA,SE,Davis Creek
-120.702,39.757,PLUE,Plumas - Eureka State Park,530.836.2380,mid may-late dec,Tent only,CA,W,Blairsden
-122.968,39.442,POGI,Pogie Point - Lake Pillsbury,707.275.2361/530.934.3316,,,CA,NE,Potter Valley
-119.104,34.1,POIM,Point Mugu Military,805.989.8407,,military only - do not use our lat/lon - contact them for directions and info,CA,,
-121.384,35.998,POND,Ponderosa,831.385.5434/805.961.5778,all year,,CA,NW,San Simeon
-120.603,38.906,PONC,Ponderosa Cove,530.333.4312/530.622.5061,,,CA,N,Pollock Pines
-121.187,40.168,POND,Ponderosa Flat,,,,CA,S,Chester
-119.566,37.809,PORC,Porcupine Flat - Yosemite National Park,209.372.0200,,,CA,,
-118.072,36.601,PORG,Portagee Joe,,,,CA,SW,Lone Pine
-119.067,37.32,PORT,Portal Forebay,559.855.5355/559.297.0706,,,CA,NE,Lakeshore
-122.212,37.262,PORR,Portola Redwoods State Park,650.948.9098,early mar-late dec,steep windy roads,CA,SE,Lahonda
-121.532,40.188,POTA,Potato Patch,530.258.2141/530.257.2151,,,CA,SW,Chester
-116.595,32.615,POTE,Potrero,619.478.5212,,res: 877.565.3600,CA,NE,Potrero
-118.801,36.517,POTW,Potwisha - Sequoia National Park,559.565.3341,,,CA,NE,Three Rivers
-117.641,33.942,PRAD,Prado Regional Park,909.597.4260,all year,,CA,SE,Chino
-122.73,40.963,PREA,Preacher Meadow,530.275.1587/530.226.2500,,,CA,SW,Trinity Center
-118.94,36.804,PRIN,Princess,559.338.2251/559.784.1500,mid may-mid sep,,CA,NW,Hume
-120.16,39.378,PROS,Prosser,530.587.3558/530.265.4531,mid may-late sep,,CA,N,Truckee
-119.075,37.648,PUMI,Pumice Flat,760.924.5500/760.873.2400,mid jun-mid sep,,CA,W,Mammoth Lakes
-118.545,36.121,QUAK,Quaking Aspen,559.539.2607/559.784.1500,early may-late oct,,CA,SE,Camp Nelson
-121.218,40.046,QUEE,Queen Lily,530.283.0555/530.283.2050,,,CA,NW,Quincy
-120.008,37.61,RAIL,Railroad Flat,209.379.9414,,,CA,,
-120.528,38.739,RAIN,Rainbow  - Sly Park Recreation Area,530.644.2545,,,CA,SE,Pollock Pines
-120.252,40.707,RAMH,Ramhorn Springs,,,,CA,NE,Susanville
-120.91,39.54,RAMS,Ramshorn,530.288.3231/530.265.4531,mid apr-mid oct,,CA,W,Downieville
-119.161,37.25,RANC,Rancheria,559.855.5355/559.297.0706,all year,,CA,E,Lakeshore
-117.413,33.98,RANJ,Rancho Jurupa Park,51.684.7032,,,CA,NW,Riverside
-121.094,38.332,RANC,Rancho Seco,,early apr-late oct,,CA,E,Herald
-121.094,38.332,RACO,Rancho Seco Rec Area,209.748.2318,,,CA,E,Herald
-123.229,41.299,REDB,Red Bank,530.468.5351/530.842.6131,,,CA,,
-120.971,39.735,REDF,Red Feather,530.534.6500/530.283.2050,mid jun-late aug,,CA,N,La Porte
-115.613,33.202,REDM,Red Hill Marina,760 348.2310,,,CA,NW,Calipatria
-117.98,35.371,REDR,Red Rock Canyon State Park,661 942.0662,,,CA,,
-120.83,41.167,REDT,Red Tail Rim South,530.299.3215/530.233.5811,mid jun-mid oct,,CA,E,Adin
-119.454,37.145,REDI,Redinger,,,no facilities,CA,NE,Fresno
-119.073,37.619,REDS,Reds Meadow,760.924.5500/760.873.2400,,,CA,W,Mammoth Lakes
-124.129,40.78,REDF,Redwood Acres Fairgrounds,707.445.3037,,,CA,SE,Eureka
-123.206,39.163,REDW,Redwood Empire Fair RV Park,707.462.3884,,RV Parking,CA,,Ukiah
-118.592,35.977,REDW,Redwood Meadow,559.539.2607/559.784.1500,early may-late oct,,CA,E,Ducor
-120.072,34.463,REFU,Refugio State Beach,805.968.1033,early mar-late dec,,CA,W,Goleta
-120.774,41.66,RESC,Reservoir C,530.667.2246/530.233.5811,mid may-mid oct,,CA,NW,Alturas
-120.874,41.579,RESF,Reservoir F,530.667.2246/530.233.5811,mid may-mid oct,,CA,W,Alturas
-119.083,37.771,REVE,Reversed Creek,760.647.3045/760.873.2400,mid may-late oct,,CA,SW,June Lake
-119.307,34.679,REYC,Reyes Creek,661.245.3731/805.961.5778,,,CA,SW,Mt. Pinos
-119.315,34.637,REYP,Reyes Peak,805.646.4348/805.961.5778,,,CA,N,Ojai
-123.793,40.018,RICH,Richardson Grove State Park,707.247.3318,mid may-late dec,3 campgrounds,CA,S,Garberville
-122.798,40.847,RIDG,Ridgeville,530.275.1587/530.226.2500,,,CA,NE,Weaverville
-119.403,34.333,RINC,Rincon County Parkway RV,,,RV only,CA,W,Ventura
-123.028,40.876,RIPS,Ripstein,530.623.2121/530.226.2500,,,CA,N,Junction City
-120.435,34.65,RIVP,River Park RV,805.736.3504,,,CA,NE,Lompoc
-120.182,37.993,RIVR,River Ranch,209.928.3708,,part private,CA,SE,Twain Harte
-115.118,32.912,ROAD,Roadrunner - Imperial Sand Dunes OHV,760.337.4400,,few facil-paved sites- toilets,CA,E,Brawley
-119.323,38.185,ROBC,Robinson Creek,760.932.7070/775.331.6444,mid may-mid oct,,CA,SW,Bridgeport
-120.502,39.156,ROBF,Robinson Flat,530.367.2224/530.265.4531,,,CA,NE,Foresthill
-119.361,37.292,ROCC,Rock Creek,559.877.2218/559.297.0706,mid may-late sep,,CA,NE,North Fork
-118.734,37.451,ROCL,Rock Creek Lake,760.873.2500/760.873.2400,early jun-late sep,,CA,SE,Mammoth Lakes
-121.428,40.726,ROCK,Rocky,530.336.5521/530.257.2151,,,CA,SE,Hat Creek
-118.922,36.068,ROCH,Rocky Hill,,,,CA,E,Porterville
-121.155,40.499,RCKL,Rocky Knoll,530.258.2141/530.257.2151,,,CA,NW,Westwood
-121.1,40.191,ROCP,Rocky Point - Feather River,916.386.5164,,,CA,NW,Canyondam
-120.977,39.513,ROCR,Rocky Rest,530.288.3231/530.265.4531,mid apr-mid oct,,CA,NE,Camptonville
-121.312,39.768,ROGE,Rogers Cow Camp (Family ),530.534.6500/530.283.2050,mid may-mid sep,,CA,NE,Berry Creek
-119.183,34.532,ROSE,Rose Valley,805.646.4348/805.961.5778,,,CA,NE,Ojai
-120.81,40.348,ROXI,Roxie Peconom,530.257.4188/530.257.2151,,Tent only,CA,SW,Susanville
-124.122,41.854,RUBY,Ruby Van Devander Co Park,707.464.7230,,,CA,NE,Crescent City
-109.31,31.78,RUCL,Rucker Lake,,,,CA,,
-120.933,38.964,RUCK,Rucky A Chucky - Auburn State Rec Area,530.885.4527,,primitive - 2.5 mile dirt road - unknown facilities,CA,,
-120.967,39.738,RUNN,Running Deer,530.534.6500/530.283.2050,mid jun-late aug,,CA,N,La Porte
-122.897,40.819,RUSH,Rush Creek,530.275.1587/530.226.2500,,,CA,N,Weaverville
-123.779,39.331,RUSS,Russian Gulch State Park,707.937.5804,mid may-late dec,,CA,NE,Mendocino
-123.393,40.326,RUTH,Ruth Lake - Ruth Lake,707.574.6196,,,CA,SE,Mad River
-116.155,33.983,RYAN,Ryan - Joshua Tree National Park,760.367.5500,,,CA,,
-118.606,37.22,SABR,Sabrina,760.873.2500/760.873.2400,mid may-mid sep,,CA,SW,Bishop
-122.712,39.308,SADD,Saddle Camp Loop,530.934.1250/530.934.3316,,,CA,SW,Stonyford
-117.825,34.677,SADU,Saddleback Butte State Park,661 942.0662,all year,,CA,E,Lancaster
-119.271,37.965,SADB,Saddlebag Lake,760.647.3045/760.873.2400,,,CA,W,Lee Vining
-118.413,37.13,SAGF,Sage Flat,760.873.2500/760.873.2400,,,CA,W,Big Pine
-120.257,39.435,SAGC,Sagehen Creek,530.587.3558/530.265.4531,,,CA,NW,Truckee
-118.861,37.866,SAGE,Sagehen Meadows,760.647.3045/760.873.2400,,,CA,SE,Lee Vining
-120.614,39.626,SALM,Salmon Creek,530.288.3231/530.265.4531,early jun-mid oct,,CA,N,Sierra City
-123.324,38.569,SALT,Salt Point State Park,707.847.3221,all year,,CA,NW,Jenner
-124.218,40.769,SAMO,Samoa Boat Ramp County RV Park,,,RV only,CA,SW,Eureka
-119.155,37.335,SAMP,Sample Meadow,559.855.5355/559.297.0706,,,CA,N,Lakeshore
-122.739,38.024,SAMU,Samuel Taylor State Park,415.488.9897,mid may-late dec,,CA,W,Lagunitas
-120.515,34.803,SANA,San Antonio Military - Vandenberg AFB,805.606.8579,,military only - do not use our lat/lon - contact them for directions and info,CA,N,Lompoc
-117.602,33.407,SANC,San Clemente State Beach,949.492.3156,all year,,CA,SE,San Clemente
-117.284,33.022,SANE,San Elijo State Beach,760.753.5091,all year,,CA,W,Cardiff
-116.867,34.174,SANG,San Gorgonio,909.382.2790/909.382.2600,early may-late sep,,CA,E,Angelus Oaks
-121.153,36.207,SANR,San Lorenzo,831.755.4895,,,CA,W,King City
-121.062,37.084,SANL,San Luis Creek - San Luis Reservoir,209.826.1197,all year,,CA,,Gustine
-117.585,33.407,SANO,San Mateo  - San Onofre State Beach,949.492.4872,all year,,CA,SE,San Clemente
-122.294,37.277,SANM,San Mateo Memorial County Park,650.879.0238,all year,,CA,E,Pescadero
-117.572,33.38,SANO,San Onofre Beach Military,760.763.7263,,military only - do not use our lat/lon - contact them for directions and info,CA,SE,San Clemente
-121.121,35.583,SANS,San Simeon State Park,805.927.2020,mid may-late dec,,CA,NW,Cambria
-122.064,37.237,SANB,Sanborn - Skyline County Park,,,,CA,W,Los Gatos
-120.155,38.184,SANF,Sand Bar Flat,209.586.3234/209.533.3671,,,CA,N,Mi-Wuk
-119.788,38.404,SAN1,Sand Flat,209.795.1381/209.533.3671,,,CA,SE,Kyburz
-120.325,38.763,SAN2,Sand Flat,530.644.2324/530.622.5061,mid may-mid sep,,CA,E,Placerville
-120.08,38.411,SAN3,Sand Flat,209.965.3434/209.533.3671,,,CA,,
-121.694,38.149,SANP,Sandy Beach County Park,707.374.2097,,,CA,S,Rio Vista
-118.538,35.581,SAN4,Sandy Flat,760.379.5646/559.784.1500,all year,,CA,SW,Lake Isabella
-121.998,36.973,SACP,Santa Cruz Port District,831.475.3279,,,CA,E,Santa Cruz
-120.493,35.324,SANT,Santa Margarita Lake Regional Park,805.788.2397,,,CA,SE,Santa Margarita
-120.445,34.941,SANT,Santa Maria Fairpark,805.925.8824,,RV Parking,CA,,Santa Maria
-117.006,32.845,SANK,Santee Lakes Regional Park,,,,CA,W,Santee
-123.052,41.788,SARA,Sarah Totten,530.493.2243/530.842.6131,mid may-mid oct,,CA,E,Happy Camp
-120.615,39.62,SARD,Sardine,530.288.3231/530.265.4531,early jun-mid oct,,CA,N,Sierra City
-118.572,34.701,SAWM,Sawmill,661.296.9710/626.574.1613,,,CA,W,Lake Hughes
-119.017,36.97,SAWF,Sawmill Flat,559.855.5355/559.297.0706,,,CA,SE,Lakeshore
-118.676,37.769,SAWS,Sawmill Meadows,760.647.3045/760.873.2400,,,CA,SE,Lee Vining
-121.617,41.592,SCHO,Schonichin Springs,530.667.2246/530.233.5811,mid jul-mid oct,,CA,W,Tionesta
-121.121,39.418,SCHL,Schoolhouse,530.288.3231/530.265.4531,,,CA,SW,Camptonville
-123.309,40.366,SCOF,Scott Flat,530.628.5227/530.226.2500,,,CA,E,Bridgeville
-122.698,41.275,SCOT,Scott Mountain,530.623.2121/530.226.2500,,,CA,,
-118.085,33.75,SEAB,Seabreeze at Seal Beach Military,562.626.7106,,voted best - military only - do not use our lat/lon - contact them for directions and info,CA,NE,Seal Beach
-121.919,36.974,SEAC,Seacliff State Beach,831 685.6442,all year,,CA,W,Aptos
-119.841,35.132,SELB,Selby,,,,CA,NW,New Cuyama
-118.673,36.792,SENT,Sentinel - Sequoia and Kings Canyon National Park,559.565.3341,,,CA,NW,Cedar Grove
-116.915,34.263,SERR,Serrano,909.382.2790/909.382.2600,all year,,CA,N,Big Bear Lake
-123.069,41.203,SHAD,Shadow Creek,530.468.5351/530.842.6131,,,CA,NE,Cecilville
-121.981,41.711,SHAF,Shafter,530.398.4391/530.842.6131,,RR near,CA,S,Macdoel
-118.67,36.249,SHAK,Shake Camp - State Forest,,,,CA,NE,Springville
-121.269,37.854,SHAR,Sharpe RV Military,209.639.1016,,closing 9/2013 - military only - do not use our lat/lon - contact them for directions and info,CA,S,French Camp
-122.433,40.713,SHAS,Shasta (OHV),530.275.1587/530.226.2500,,,CA,N,Redding
-118.679,36.792,SHEP,Sheep Creek - Kings Canyon National Park,559.565.3341,,,CA,W,Cedar Grove
-123.06,40.47,SHEI,Sheill Gulch,530.628.5227/530.226.2500,,,CA,NW,Platina
-118.936,37.63,SHER,Sherwin Creek,760.924.5500/760.873.2400,early may-late aug,,CA,SE,Mammoth Lakes
-120.786,39.144,SHIR,Shirttail,530.367.2224/530.265.4531,mid may-late sep,,CA,N,Foresthill
-116.313,35.912,SHOS,Shoshone - Tecopa - Dispersed,,,dispersed - no facil - open desert,CA,SW,Shoshone
-120.558,39.631,SIER,Sierra,530.288.3231/530.265.4531,early jun-mid oct,,CA,NE,Sierra City
-120.549,38.726,SIER,Sierra  - Sly Park Recreation Area,530.644.2545,,,CA,SE,Pollock Pines
-117.668,35.652,SIER,Sierra Vista RV Park - China Lake,760.939.3440,all year,,CA,N,Ridgecrest
-121.163,40.5,SILB,Silver Bowl,530.258.2141/530.257.2151,,,CA,NW,Westwood
-119.786,38.588,SIL1,Silver Creek-Hwy 4,775.882.2766/775.331.6444,mid jun-late aug,,CA,S,Markleeville
-120.201,39.223,SIL2,Silver Creek-Truckee,530.587.3558/530.265.4531,mid may-late sep,,CA,NW,Tahoe City
-120.207,38.699,SILF,Silver Fork,530.644.2324/530.622.5061,mid may-mid sep,,CA,NE,Pioneer
-120.121,38.672,SIL3,Silver Lake,209.295.4251/530.622.5061,,,CA,E,Eldorado
-121.135,39.959,SILV,Silver Lake (Family ),530.283.0555/530.283.2050,,,CA,W,Quincey
-119.126,37.783,SIL4,Silver Lake - June Lake,760.647.3045/760.873.2400,early may-mid nov,,CA,W,June Lake
-117.143,32.636,SILS,Silver Strand State Beach,619.435.5184,all year,Rv camping only - no facilities,CA,SE,Coronado
-119.986,38.481,SILL,Silver Valley,209.795.1381/209.533.3671,,,CA,NE,Arnold
-120.017,38.481,SILT,Silvertip,209.795.1381/209.533.3671,,,CA,NE,Bear Valley
-117.335,34.281,SIL5,Silverwood Lake State Rec Area,760.389.2281,all year,,CA,S,Hesperia
-122.359,41.062,SIMS,Sims Flat,530.926.4511/530.226.2500,,,CA,SW,Dunsmuir
-120.79,39.318,SKIL,Skillman,530.478.0248,mid may-mid sep,horse camp,CA,E,Nevada City
-122.246,38.276,SKYL,Skyline Wilderness County Park,707.252.0481,,,CA,SE,Napa
-115.464,33.257,SLAB,Slab City,,all year,winter RV community - no time limit - free - very informal,CA,E,Niland
-123.502,40.668,SLID,Slide Creek,,,,CA,NW,Hyampom
-121.117,39.584,SLYC,Sly Creek,,mid may-mid sep,,CA,SW,La Porte
-120.57,38.725,SLYR,Sly Park,530.295.6810,,8 campgrounds - ungrouped,CA,,Pollock Pines
-119.512,37.152,SMAL,Smalley Cove,559.877.2218,,,CA,N,Auberry
-120.626,39.668,SNAG,Snag Lake,530.288.3231/530.265.4531,,,CA,W,Calpine
